<?xml version="1.0" encoding="UTF-8"?>
<kml xmlns="http://earth.google.com/kml/2.0">
<Document>
<Placemark>
<name>Sainik Food</name>
<description>Delhi NCR</description>
<Point><coordinates>77.28487115,28.61773241,0</coordinates></Point>
</Placemark>
<Placemark>
<name>Kunal&#39;s Creamery &amp; Eatery</name>
<description>Mumbai</description>
<Point><coordinates>73.18428654,19.20588693,0</coordinates></Point>
</Placemark>
<Placemark>
<name>Brij Palace Restaurant</name>
<description>Delhi NCR</description>
<Point><coordinates>77.29122296,28.56303436,0</coordinates></Point>
</Placemark>
<Placemark>
<name>Sahib Hotel</name>
<description>Delhi NCR</description>
<Point><coordinates>77.21829806,28.64241064,0</coordinates></Point>
</Placemark>
<Placemark>
<name>Chunky&#39;s</name>
<description>Kolkata</description>
<Point><coordinates>88.33070844,22.57775822,0</coordinates></Point>
</Placemark>
<Placemark>
<name>The Food Story</name>
<description>Delhi NCR</description>
<Point><coordinates>77.3278938,28.4101578,0</coordinates></Point>
</Placemark>
<Placemark>
<name>Manish Indian &amp; Chinese Food Corner</name>
<description>Delhi NCR</description>
<Point><coordinates>77.12931812,28.54142922,0</coordinates></Point>
</Placemark>
<Placemark>
<name>Applemint</name>
<description>Mumbai</description>
<Point><coordinates>73.06552671,19.03339015,0</coordinates></Point>
</Placemark>
<Placemark>
<name>Way To Waffles</name>
<description>Delhi NCR</description>
<Point><coordinates>77.33703308,28.63883753,0</coordinates></Point>
</Placemark>
<Placemark>
<name>Food Fantasy</name>
<description>Delhi NCR</description>
<Point><coordinates>77.29276288,28.60820228,0</coordinates></Point>
</Placemark>
<Placemark>
<name>Curry And Combos Twist</name>
<description>Mumbai</description>
<Point><coordinates>72.869879,19.175588,0</coordinates></Point>
</Placemark>
<Placemark>
<name>Friend Z Cafe</name>
<description>Delhi NCR</description>
<Point><coordinates>77.11736821,28.74482325,0</coordinates></Point>
</Placemark>
<Placemark>
<name>Bunty Fast Food Centre</name>
<description>Kolkata</description>
<Point><coordinates>88.314698,22.474803,0</coordinates></Point>
</Placemark>
<Placemark>
<name>Nutritious Bites</name>
<description>Delhi NCR</description>
<Point><coordinates>77.12973,28.735006,0</coordinates></Point>
</Placemark>
<Placemark>
<name>Bombay&#39;s Royal China</name>
<description>Delhi NCR</description>
<Point><coordinates>77.1370452,28.7130441,0</coordinates></Point>
</Placemark>
<Placemark>
<name>Food Village</name>
<description>Kolkata</description>
<Point><coordinates>88.37741643,22.65242669,0</coordinates></Point>
</Placemark>
<Placemark>
<name>Gazzab Family Restaurant</name>
<description>Delhi NCR</description>
<Point><coordinates>77.08204485,28.60123052,0</coordinates></Point>
</Placemark>
<Placemark>
<name>The Bunk House</name>
<description>Delhi NCR</description>
<Point><coordinates>77.19494037,28.55448525,0</coordinates></Point>
</Placemark>
<Placemark>
<name>AIR- An Ivory Region</name>
<description>Delhi NCR</description>
<Point><coordinates>76.9869859,28.547809,0</coordinates></Point>
</Placemark>
<Placemark>
<name>Pizza Galleria</name>
<description>Delhi NCR</description>
<Point><coordinates>77.42357522,28.61957805,0</coordinates></Point>
</Placemark>
<Placemark>
<name>Brijwasi Sweets</name>
<description>Mumbai</description>
<Point><coordinates>72.84582663,19.09829119,0</coordinates></Point>
</Placemark>
<Placemark>
<name>Chakkhna : Beyond Peanuts</name>
<description>Delhi NCR</description>
<Point><coordinates>77.04911973,28.41173959,0</coordinates></Point>
</Placemark>
<Placemark>
<name>Truffle Tangles</name>
<description>Delhi NCR</description>
<Point><coordinates>77.03633431,28.42824314,0</coordinates></Point>
</Placemark>
<Placemark>
<name>Pizzaman</name>
<description>Kolkata</description>
<Point><coordinates>88.43544837,22.57055905,0</coordinates></Point>
</Placemark>
<Placemark>
<name>Foodee Hub</name>
<description>Delhi NCR</description>
<Point><coordinates>77.03473,28.622518,0</coordinates></Point>
</Placemark>
<Placemark>
<name>Anand Special Nasta</name>
<description>Delhi NCR</description>
<Point><coordinates>77.05690518,28.61077982,0</coordinates></Point>
</Placemark>
<Placemark>
<name>Taste Of Kerala</name>
<description>Delhi NCR</description>
<Point><coordinates>77.3521459,28.3987444,0</coordinates></Point>
</Placemark>
<Placemark>
<name>Pepper And Salt</name>
<description>Delhi NCR</description>
<Point><coordinates>77.42279068,28.61763028,0</coordinates></Point>
</Placemark>
<Placemark>
<name>Capri Chef Cart</name>
<description>Delhi NCR</description>
<Point><coordinates>77.0715342,28.6393096,0</coordinates></Point>
</Placemark>
<Placemark>
<name>Wah Shah Ji Wah</name>
<description>Delhi NCR</description>
<Point><coordinates>77.10414391,28.6437065,0</coordinates></Point>
</Placemark>
<Placemark>
<name>Food Swag</name>
<description>Delhi NCR</description>
<Point><coordinates>77.05395274,28.62135892,0</coordinates></Point>
</Placemark>
<Placemark>
<name>Pizza Tree</name>
<description>Delhi NCR</description>
<Point><coordinates>77.372403,28.586718,0</coordinates></Point>
</Placemark>
<Placemark>
<name>Coffee House</name>
<description>Mumbai</description>
<Point><coordinates>72.83821218,18.93644708,0</coordinates></Point>
</Placemark>
<Placemark>
<name>Black Paper</name>
<description>Delhi NCR</description>
<Point><coordinates>77.3594503,28.586476,0</coordinates></Point>
</Placemark>
<Placemark>
<name>Vivoo Chicken Corner</name>
<description>Delhi NCR</description>
<Point><coordinates>0,0,0</coordinates></Point>
</Placemark>
<Placemark>
<name>The 6 Russel Street</name>
<description>Kolkata</description>
<Point><coordinates>88.34964752,22.54912835,0</coordinates></Point>
</Placemark>
<Placemark>
<name>EggOMogo</name>
<description>Mumbai</description>
<Point><coordinates>72.978054,19.203391,0</coordinates></Point>
</Placemark>
<Placemark>
<name>The Biryani Darbar</name>
<description>Kolkata</description>
<Point><coordinates>88.514078,22.565736,0</coordinates></Point>
</Placemark>
<Placemark>
<name>Biryani &amp; Kormas</name>
<description>Delhi NCR</description>
<Point><coordinates>77.29993913,28.46220371,0</coordinates></Point>
</Placemark>
<Placemark>
<name>eat.fit</name>
<description>Delhi NCR</description>
<Point><coordinates>77.09054947,28.47964952,0</coordinates></Point>
</Placemark>
<Placemark>
<name>Aggarwal Cake Village</name>
<description>Delhi NCR</description>
<Point><coordinates>77.03928106,28.62715513,0</coordinates></Point>
</Placemark>
<Placemark>
<name>Kachhomal Sweets</name>
<description>Mumbai</description>
<Point><coordinates>73.16295024,19.22959213,0</coordinates></Point>
</Placemark>
<Placemark>
<name>Maa Sheetla Sweets &amp; Caterers</name>
<description>Delhi NCR</description>
<Point><coordinates>77.03454595,28.47373024,0</coordinates></Point>
</Placemark>
<Placemark>
<name>Crispy Masala Chicken</name>
<description>Kolkata</description>
<Point><coordinates>88.42623096,22.61059551,0</coordinates></Point>
</Placemark>
<Placemark>
<name>Rehdiwalaa.com</name>
<description>Delhi NCR</description>
<Point><coordinates>77.10322458,28.43397952,0</coordinates></Point>
</Placemark>
<Placemark>
<name>King&#39;s Shawarma</name>
<description>Delhi NCR</description>
<Point><coordinates>77.44726583,28.68174802,0</coordinates></Point>
</Placemark>
<Placemark>
<name>Shri Ram Bikaner Sweet &amp; Snacks</name>
<description>Delhi NCR</description>
<Point><coordinates>77.31569778,28.45279364,0</coordinates></Point>
</Placemark>
<Placemark>
<name>Taj Biryani Center</name>
<description>Delhi NCR</description>
<Point><coordinates>77.03671385,28.42830653,0</coordinates></Point>
</Placemark>
<Placemark>
<name>Eat &amp; Gulp</name>
<description>Delhi NCR</description>
<Point><coordinates>77.16846831,28.71925588,0</coordinates></Point>
</Placemark>
<Placemark>
<name>Caesar&#39;s Kitchen</name>
<description>Delhi NCR</description>
<Point><coordinates>77.32557669,28.56746722,0</coordinates></Point>
</Placemark>
<Placemark>
<name>Jain Sweets &amp; Bakers</name>
<description>Delhi NCR</description>
<Point><coordinates>77.12476574,28.54697391,0</coordinates></Point>
</Placemark>
<Placemark>
<name>Punjabi Wok</name>
<description>Delhi NCR</description>
<Point><coordinates>77.17299219,28.69338404,0</coordinates></Point>
</Placemark>
<Placemark>
<name>The Real Heavens</name>
<description>Delhi NCR</description>
<Point><coordinates>77.36812592,28.58334819,0</coordinates></Point>
</Placemark>
<Placemark>
<name>M&#39;s Kitchen</name>
<description>Mumbai</description>
<Point><coordinates>73.00122377,19.08874032,0</coordinates></Point>
</Placemark>
<Placemark>
<name>Rubaab Restaurant</name>
<description>Delhi NCR</description>
<Point><coordinates>77.49822915,28.48197824,0</coordinates></Point>
</Placemark>
<Placemark>
<name>Petuk Food Parlour</name>
<description>Kolkata</description>
<Point><coordinates>88.301989,22.497069,0</coordinates></Point>
</Placemark>
<Placemark>
<name>Rashmin The Mithai Shop</name>
<description>Mumbai</description>
<Point><coordinates>72.85014097,19.18775146,0</coordinates></Point>
</Placemark>
<Placemark>
<name>Cookie Man</name>
<description>Kolkata</description>
<Point><coordinates>88.36117499,22.5016653,0</coordinates></Point>
</Placemark>
<Placemark>
<name>Ayub&#39;s</name>
<description>Mumbai</description>
<Point><coordinates>72.83314146,18.92832199,0</coordinates></Point>
</Placemark>
<Placemark>
<name>Welcome Chicken Corner</name>
<description>Delhi NCR</description>
<Point><coordinates>77.25688465,28.55933074,0</coordinates></Point>
</Placemark>
<Placemark>
<name>Domino&#39;s Pizza</name>
<description>Delhi NCR</description>
<Point><coordinates>77.32449409,28.57037024,0</coordinates></Point>
</Placemark>
<Placemark>
<name>Swad Food &amp; Caterers</name>
<description>Delhi NCR</description>
<Point><coordinates>77.08084255,28.62938201,0</coordinates></Point>
</Placemark>
<Placemark>
<name>Jai Shree Ram Sweets</name>
<description>Delhi NCR</description>
<Point><coordinates>77.03478366,28.47572312,0</coordinates></Point>
</Placemark>
<Placemark>
<name>M/S Binode Behari Nag Ganesh Chandra Dutta</name>
<description>Kolkata</description>
<Point><coordinates>88.34636249,22.57146678,0</coordinates></Point>
</Placemark>
<Placemark>
<name>Red Chilli Hub</name>
<description>Delhi NCR</description>
<Point><coordinates>0,0,0</coordinates></Point>
</Placemark>
<Placemark>
<name>Sonu Shudh Bhojanalya</name>
<description>Delhi NCR</description>
<Point><coordinates>77.33349826,28.61263795,0</coordinates></Point>
</Placemark>
<Placemark>
<name>Shree Radhey Shyam Dhaba</name>
<description>Delhi NCR</description>
<Point><coordinates>77.12557979,28.54625264,0</coordinates></Point>
</Placemark>
<Placemark>
<name>Punjabi Factory</name>
<description>Delhi NCR</description>
<Point><coordinates>77.10566103,28.69963534,0</coordinates></Point>
</Placemark>
<Placemark>
<name>Pizza Terminal</name>
<description>Delhi NCR</description>
<Point><coordinates>77.293069,28.646626,0</coordinates></Point>
</Placemark>
<Placemark>
<name>Dunlop Hotel and Restaurant</name>
<description>Kolkata</description>
<Point><coordinates>88.3774808,22.65251271,0</coordinates></Point>
</Placemark>
<Placemark>
<name>Deseez</name>
<description>Delhi NCR</description>
<Point><coordinates>77.05157295,28.43863332,0</coordinates></Point>
</Placemark>
<Placemark>
<name>Chefs and Cooks Caterers</name>
<description>Delhi NCR</description>
<Point><coordinates>77.05040518,28.63758427,0</coordinates></Point>
</Placemark>
<Placemark>
<name>The Parantha Corner</name>
<description>Delhi NCR</description>
<Point><coordinates>77.13002019,28.73751074,0</coordinates></Point>
</Placemark>
<Placemark>
<name>Biryani 99</name>
<description>Delhi NCR</description>
<Point><coordinates>77.37635762,28.63939632,0</coordinates></Point>
</Placemark>
<Placemark>
<name>Kitchen22</name>
<description>Delhi NCR</description>
<Point><coordinates>77.23015677,28.57218934,0</coordinates></Point>
</Placemark>
<Placemark>
<name>Foodie</name>
<description>Kolkata</description>
<Point><coordinates>88.43864053,22.58812877,0</coordinates></Point>
</Placemark>
<Placemark>
<name>Tirupati Dosa Centre</name>
<description>Mumbai</description>
<Point><coordinates>72.81673305,19.12861842,0</coordinates></Point>
</Placemark>
<Placemark>
<name>Chinese Express</name>
<description>Delhi NCR</description>
<Point><coordinates>77.31104515,28.42764666,0</coordinates></Point>
</Placemark>
<Placemark>
<name>D&#39;Brata Biryani</name>
<description>Kolkata</description>
<Point><coordinates>88.438065,22.980232,0</coordinates></Point>
</Placemark>
<Placemark>
<name>Where&#39;s My Cone?</name>
<description>Mumbai</description>
<Point><coordinates>72.83171251,19.06503864,0</coordinates></Point>
</Placemark>
<Placemark>
<name>Kadimi Sweets</name>
<description>Delhi NCR</description>
<Point><coordinates>77.24820066,28.58266574,0</coordinates></Point>
</Placemark>
<Placemark>
<name>Bikanervala</name>
<description>Delhi NCR</description>
<Point><coordinates>77.06368346,28.46900519,0</coordinates></Point>
</Placemark>
<Placemark>
<name>Brewtoast</name>
<description>Delhi NCR</description>
<Point><coordinates>77.24370293,28.56247487,0</coordinates></Point>
</Placemark>
<Placemark>
<name>Mirwah Restaurant</name>
<description>Mumbai</description>
<Point><coordinates>72.86428593,19.12347378,0</coordinates></Point>
</Placemark>
<Placemark>
<name>Ayde&#39;s</name>
<description>Delhi NCR</description>
<Point><coordinates>77.056529,28.53334228,0</coordinates></Point>
</Placemark>
<Placemark>
<name>Shera Ki Rasoi</name>
<description>Delhi NCR</description>
<Point><coordinates>77.12552615,28.54607946,0</coordinates></Point>
</Placemark>
<Placemark>
<name>Cheese Central</name>
<description>Delhi NCR</description>
<Point><coordinates>77.4144252,28.50483421,0</coordinates></Point>
</Placemark>
<Placemark>
<name>The Tummy Tickles</name>
<description>Delhi NCR</description>
<Point><coordinates>0,0,0</coordinates></Point>
</Placemark>
<Placemark>
<name>Muradabad Ki Shahi Chicken Biryani</name>
<description>Delhi NCR</description>
<Point><coordinates>77.22979467,28.53470045,0</coordinates></Point>
</Placemark>
<Placemark>
<name>Cafe L2L</name>
<description>Delhi NCR</description>
<Point><coordinates>77.31291667,28.58517384,0</coordinates></Point>
</Placemark>
<Placemark>
<name>Sweet Sins</name>
<description>Delhi NCR</description>
<Point><coordinates>77.25742478,28.52574047,0</coordinates></Point>
</Placemark>
<Placemark>
<name>Kwality</name>
<description>Kolkata</description>
<Point><coordinates>88.35188147,22.55341469,0</coordinates></Point>
</Placemark>
<Placemark>
<name>Punjabi Dhaba</name>
<description>Mumbai</description>
<Point><coordinates>72.87003458,19.1112769,0</coordinates></Point>
</Placemark>
<Placemark>
<name>Anda&#39;s Funda</name>
<description>Delhi NCR</description>
<Point><coordinates>77.24522341,28.56466277,0</coordinates></Point>
</Placemark>
<Placemark>
<name>Dragon Express</name>
<description>Mumbai</description>
<Point><coordinates>73.06543954,19.03018833,0</coordinates></Point>
</Placemark>
<Placemark>
<name>Essen Foods</name>
<description>Delhi NCR</description>
<Point><coordinates>77.3781674,28.6095755,0</coordinates></Point>
</Placemark>
<Placemark>
<name>Patiala Food Factory</name>
<description>Delhi NCR</description>
<Point><coordinates>77.05457166,28.5644481,0</coordinates></Point>
</Placemark>
<Placemark>
<name>S V Fast Food</name>
<description>Delhi NCR</description>
<Point><coordinates>0,0,0</coordinates></Point>
</Placemark>
<Placemark>
<name>Royal Inn Hotel And Restaurant</name>
<description>Kolkata</description>
<Point><coordinates>88.424211,22.952405,0</coordinates></Point>
</Placemark>
<Placemark>
<name>Goms Pizza</name>
<description>Delhi NCR</description>
<Point><coordinates>77.44944982,28.5657514,0</coordinates></Point>
</Placemark>
<Placemark>
<name>Atipriya&#39;s Kitchen</name>
<description>Delhi NCR</description>
<Point><coordinates>0,0,0</coordinates></Point>
</Placemark>
<Placemark>
<name>Hem- The Cake Shop</name>
<description>Mumbai</description>
<Point><coordinates>72.84179796,19.20326439,0</coordinates></Point>
</Placemark>
<Placemark>
<name>Waah Kachori</name>
<description>Kolkata</description>
<Point><coordinates>88.43287949,22.61000002,0</coordinates></Point>
</Placemark>
<Placemark>
<name>Arabitia Café</name>
<description>Delhi NCR</description>
<Point><coordinates>77.15158344,28.69548839,0</coordinates></Point>
</Placemark>
<Placemark>
<name>Bharawaan Di Rasoi</name>
<description>Delhi NCR</description>
<Point><coordinates>77.31350172,28.39321931,0</coordinates></Point>
</Placemark>
<Placemark>
<name>Bahaar Restaurant</name>
<description>Delhi NCR</description>
<Point><coordinates>77.09214237,28.48046584,0</coordinates></Point>
</Placemark>
<Placemark>
<name>Hauz Khas Social</name>
<description>Delhi NCR</description>
<Point><coordinates>77.19443813,28.55429353,0</coordinates></Point>
</Placemark>
<Placemark>
<name>Time Out Cafe</name>
<description>Delhi NCR</description>
<Point><coordinates>77.38221891,28.64059011,0</coordinates></Point>
</Placemark>
<Placemark>
<name>Crazy Bhukkhad</name>
<description>Delhi NCR</description>
<Point><coordinates>77.05072101,28.43018262,0</coordinates></Point>
</Placemark>
<Placemark>
<name>South Indian Corner</name>
<description>Delhi NCR</description>
<Point><coordinates>77.12746739,28.723778,0</coordinates></Point>
</Placemark>
<Placemark>
<name>Chennai Food Palace</name>
<description>Delhi NCR</description>
<Point><coordinates>77.33637191,28.63854238,0</coordinates></Point>
</Placemark>
<Placemark>
<name>Adarsh Pure Veg</name>
<description>Mumbai</description>
<Point><coordinates>72.92514928,19.1101038,0</coordinates></Point>
</Placemark>
<Placemark>
<name>Melting Flavours</name>
<description>Delhi NCR</description>
<Point><coordinates>77.41481781,28.50407759,0</coordinates></Point>
</Placemark>
<Placemark>
<name>Rosenberg</name>
<description>Kolkata</description>
<Point><coordinates>88.39292295,22.5921028,0</coordinates></Point>
</Placemark>
<Placemark>
<name>Cherubs</name>
<description>Delhi NCR</description>
<Point><coordinates>77.18311317,28.63823753,0</coordinates></Point>
</Placemark>
<Placemark>
<name>Shankar Store</name>
<description>Kolkata</description>
<Point><coordinates>88.37392343,22.70578551,0</coordinates></Point>
</Placemark>
<Placemark>
<name>Bake Bite</name>
<description>Delhi NCR</description>
<Point><coordinates>77.23215736,28.50769506,0</coordinates></Point>
</Placemark>
<Placemark>
<name>Shiv Shakti Restaurant</name>
<description>Delhi NCR</description>
<Point><coordinates>77.29327887,28.60347001,0</coordinates></Point>
</Placemark>
<Placemark>
<name>Tawa Wok</name>
<description>Delhi NCR</description>
<Point><coordinates>77.0394668,28.40641547,0</coordinates></Point>
</Placemark>
<Placemark>
<name>Coney&#39;s - Pizza Cones &amp; More</name>
<description>Mumbai</description>
<Point><coordinates>72.8483868,19.25077403,0</coordinates></Point>
</Placemark>
<Placemark>
<name>Sailors&#39; Cafe</name>
<description>Mumbai</description>
<Point><coordinates>73.03376902,19.00700134,0</coordinates></Point>
</Placemark>
<Placemark>
<name>Spice &amp; Tandoor</name>
<description>Delhi NCR</description>
<Point><coordinates>77.51512036,28.4734031,0</coordinates></Point>
</Placemark>
<Placemark>
<name>Biryaniya</name>
<description>Delhi NCR</description>
<Point><coordinates>77.08827663,28.46154465,0</coordinates></Point>
</Placemark>
<Placemark>
<name>Mosaic Express- By Crowne Plaza</name>
<description>Delhi NCR</description>
<Point><coordinates>0,0,0</coordinates></Point>
</Placemark>
<Placemark>
<name>Knight Delight Kafe</name>
<description>Delhi NCR</description>
<Point><coordinates>77.0143117,28.48084896,0</coordinates></Point>
</Placemark>
<Placemark>
<name>Ridhi Sidhi</name>
<description>Kolkata</description>
<Point><coordinates>88.44042521,22.58125581,0</coordinates></Point>
</Placemark>
<Placemark>
<name>Kuldeep Food Corner</name>
<description>Delhi NCR</description>
<Point><coordinates>77.1762403,28.681556,0</coordinates></Point>
</Placemark>
<Placemark>
<name>Samla Food</name>
<description>Delhi NCR</description>
<Point><coordinates>77.27949299,28.626528,0</coordinates></Point>
</Placemark>
<Placemark>
<name>FCF Chaap &amp; Kabab&#39;s</name>
<description>Delhi NCR</description>
<Point><coordinates>77.12019727,28.63777025,0</coordinates></Point>
</Placemark>
<Placemark>
<name>Plum By Bent Chair</name>
<description>Delhi NCR</description>
<Point><coordinates>77.122704,28.55154,0</coordinates></Point>
</Placemark>
<Placemark>
<name>Kittoo&#39;s</name>
<description>Delhi NCR</description>
<Point><coordinates>77.05731254,28.42544412,0</coordinates></Point>
</Placemark>
<Placemark>
<name>WOW Popcorn</name>
<description>Mumbai</description>
<Point><coordinates>72.82305166,19.07081632,0</coordinates></Point>
</Placemark>
<Placemark>
<name>Raj Bakers And Confectioners</name>
<description>Delhi NCR</description>
<Point><coordinates>77.11256202,28.65000402,0</coordinates></Point>
</Placemark>
<Placemark>
<name>Choutala Food Junction</name>
<description>Delhi NCR</description>
<Point><coordinates>77.31212944,28.61275362,0</coordinates></Point>
</Placemark>
<Placemark>
<name>Ghosh Sweets</name>
<description>Kolkata</description>
<Point><coordinates>88.38936266,22.57147173,0</coordinates></Point>
</Placemark>
<Placemark>
<name>Hungry Hippo</name>
<description>Kolkata</description>
<Point><coordinates>88.40553202,22.60144403,0</coordinates></Point>
</Placemark>
<Placemark>
<name>Vimal Sweets</name>
<description>Delhi NCR</description>
<Point><coordinates>77.06915416,28.68362078,0</coordinates></Point>
</Placemark>
<Placemark>
<name>Puchkawala</name>
<description>Kolkata</description>
<Point><coordinates>88.37592445,22.58704593,0</coordinates></Point>
</Placemark>
<Placemark>
<name>The Royal Food Junction</name>
<description>Delhi NCR</description>
<Point><coordinates>77.43151255,28.6683698,0</coordinates></Point>
</Placemark>
<Placemark>
<name>Mojo&#39;s Food</name>
<description>Delhi NCR</description>
<Point><coordinates>77.16863025,28.65419284,0</coordinates></Point>
</Placemark>
<Placemark>
<name>Tohfay Walla</name>
<description>Delhi NCR</description>
<Point><coordinates>77.3827064,28.57117585,0</coordinates></Point>
</Placemark>
<Placemark>
<name>Mayur Restaurant &amp; Bar</name>
<description>Mumbai</description>
<Point><coordinates>72.83617772,19.08446482,0</coordinates></Point>
</Placemark>
<Placemark>
<name>Wat the Waffle</name>
<description>Delhi NCR</description>
<Point><coordinates>77.09746923,28.63396274,0</coordinates></Point>
</Placemark>
<Placemark>
<name>Pirates of Punjab</name>
<description>Delhi NCR</description>
<Point><coordinates>77.09825881,28.63648432,0</coordinates></Point>
</Placemark>
<Placemark>
<name>Woodz Pizza</name>
<description>Mumbai</description>
<Point><coordinates>72.83170319,19.14467812,0</coordinates></Point>
</Placemark>
<Placemark>
<name>Back To Pavilion Cafe</name>
<description>Delhi NCR</description>
<Point><coordinates>77.27685336,28.63875749,0</coordinates></Point>
</Placemark>
<Placemark>
<name>Cherry Berry</name>
<description>Delhi NCR</description>
<Point><coordinates>77.18997225,28.69434193,0</coordinates></Point>
</Placemark>
<Placemark>
<name>Diggin</name>
<description>Delhi NCR</description>
<Point><coordinates>77.197924,28.59515645,0</coordinates></Point>
</Placemark>
<Placemark>
<name>The Crossings Restaurant</name>
<description>Delhi NCR</description>
<Point><coordinates>77.43459206,28.62766543,0</coordinates></Point>
</Placemark>
<Placemark>
<name>Eggers Madhouse</name>
<description>Delhi NCR</description>
<Point><coordinates>77.0725894,28.45957273,0</coordinates></Point>
</Placemark>
<Placemark>
<name>Dogs &amp; Wiches</name>
<description>Delhi NCR</description>
<Point><coordinates>77.25314163,28.5368153,0</coordinates></Point>
</Placemark>
<Placemark>
<name>The FitBox Co.</name>
<description>Mumbai</description>
<Point><coordinates>72.85744395,19.03370139,0</coordinates></Point>
</Placemark>
<Placemark>
<name>Chicken App</name>
<description>Delhi NCR</description>
<Point><coordinates>77.18164064,28.66990038,0</coordinates></Point>
</Placemark>
<Placemark>
<name>Kebabs &amp; Curries</name>
<description>Delhi NCR</description>
<Point><coordinates>0,0,0</coordinates></Point>
</Placemark>
<Placemark>
<name>Al-Rim</name>
<description>Kolkata</description>
<Point><coordinates>88.40280488,22.49033414,0</coordinates></Point>
</Placemark>
<Placemark>
<name>Piyali Restaurant</name>
<description>Kolkata</description>
<Point><coordinates>88.41556616,22.63629237,0</coordinates></Point>
</Placemark>
<Placemark>
<name>Rasoi</name>
<description>Delhi NCR</description>
<Point><coordinates>0,0,0</coordinates></Point>
</Placemark>
<Placemark>
<name>Mr. King</name>
<description>Delhi NCR</description>
<Point><coordinates>77.48471618,28.68643058,0</coordinates></Point>
</Placemark>
<Placemark>
<name>Online Cake Palace</name>
<description>Delhi NCR</description>
<Point><coordinates>77.3038679,28.58921481,0</coordinates></Point>
</Placemark>
<Placemark>
<name>Thali King- Make My Thali</name>
<description>Delhi NCR</description>
<Point><coordinates>77.062168,28.567334,0</coordinates></Point>
</Placemark>
<Placemark>
<name>Rajubhai Bhurji Wala</name>
<description>Mumbai</description>
<Point><coordinates>72.85058822,19.22357466,0</coordinates></Point>
</Placemark>
<Placemark>
<name>Indian Halal Meat Shop</name>
<description>Delhi NCR</description>
<Point><coordinates>77.20765673,28.66416477,0</coordinates></Point>
</Placemark>
<Placemark>
<name>New Madras Cafe</name>
<description>Delhi NCR</description>
<Point><coordinates>77.27927875,28.70029204,0</coordinates></Point>
</Placemark>
<Placemark>
<name>Momos Republic</name>
<description>Mumbai</description>
<Point><coordinates>72.98423365,19.21328797,0</coordinates></Point>
</Placemark>
<Placemark>
<name>Baleshwar Rasoi</name>
<description>Delhi NCR</description>
<Point><coordinates>77.16554135,28.68729442,0</coordinates></Point>
</Placemark>
<Placemark>
<name>Wafflista Cafe</name>
<description>Delhi NCR</description>
<Point><coordinates>0,0,0</coordinates></Point>
</Placemark>
<Placemark>
<name>Rajasthali</name>
<description>Kolkata</description>
<Point><coordinates>88.35024733,22.4879126,0</coordinates></Point>
</Placemark>
<Placemark>
<name>Shree Sai Kulcha Hut</name>
<description>Mumbai</description>
<Point><coordinates>73.13330982,19.2542498,0</coordinates></Point>
</Placemark>
<Placemark>
<name>New Sethi&#39;s Restaurant</name>
<description>Delhi NCR</description>
<Point><coordinates>77.43735574,28.65312777,0</coordinates></Point>
</Placemark>
<Placemark>
<name>Diet Brite</name>
<description>Delhi NCR</description>
<Point><coordinates>77.28450805,28.67755501,0</coordinates></Point>
</Placemark>
<Placemark>
<name>Cafe Meals</name>
<description>Delhi NCR</description>
<Point><coordinates>77.13592641,28.62328985,0</coordinates></Point>
</Placemark>
<Placemark>
<name>Wrap &amp; Roll</name>
<description>Delhi NCR</description>
<Point><coordinates>77.18870021,28.64357115,0</coordinates></Point>
</Placemark>
<Placemark>
<name>Lalaji Food Plaza</name>
<description>Kolkata</description>
<Point><coordinates>88.34699683,22.61594523,0</coordinates></Point>
</Placemark>
<Placemark>
<name>Om Sweets &amp; Snacks</name>
<description>Delhi NCR</description>
<Point><coordinates>77.05057986,28.45323374,0</coordinates></Point>
</Placemark>
<Placemark>
<name>Hakka Treat</name>
<description>Delhi NCR</description>
<Point><coordinates>77.2722312,28.6298589,0</coordinates></Point>
</Placemark>
<Placemark>
<name>M M Fast Food Center</name>
<description>Kolkata</description>
<Point><coordinates>88.37050539,22.49677022,0</coordinates></Point>
</Placemark>
<Placemark>
<name>Desi Chulha</name>
<description>Delhi NCR</description>
<Point><coordinates>0,0,0</coordinates></Point>
</Placemark>
<Placemark>
<name>Cheers Resto Bar</name>
<description>Delhi NCR</description>
<Point><coordinates>77.13475529,28.71614263,0</coordinates></Point>
</Placemark>
<Placemark>
<name>Good Food Xpress &amp; Bakery</name>
<description>Delhi NCR</description>
<Point><coordinates>77.13514321,28.68936973,0</coordinates></Point>
</Placemark>
<Placemark>
<name>Delicious Treasure</name>
<description>Delhi NCR</description>
<Point><coordinates>77.37043664,28.59277165,0</coordinates></Point>
</Placemark>
<Placemark>
<name>Thali Junction</name>
<description>Kolkata</description>
<Point><coordinates>88.45114835,22.57555832,0</coordinates></Point>
</Placemark>
<Placemark>
<name>Special Muradabadi Chicken Biryani</name>
<description>Delhi NCR</description>
<Point><coordinates>77.2872507,28.5390775,0</coordinates></Point>
</Placemark>
<Placemark>
<name>Kitchen Lab</name>
<description>Delhi NCR</description>
<Point><coordinates>0,0,0</coordinates></Point>
</Placemark>
<Placemark>
<name>Rani&#39;s Bakery</name>
<description>Mumbai</description>
<Point><coordinates>72.83328496,19.19282286,0</coordinates></Point>
</Placemark>
<Placemark>
<name>The Kitchen Exotica</name>
<description>Delhi NCR</description>
<Point><coordinates>77.2818655,28.5398965,0</coordinates></Point>
</Placemark>
<Placemark>
<name>Choco Smith Gourmet Bakery</name>
<description>Delhi NCR</description>
<Point><coordinates>77.23111097,28.53379265,0</coordinates></Point>
</Placemark>
<Placemark>
<name>Café Bogchi</name>
<description>Delhi NCR</description>
<Point><coordinates>77.32380476,28.3951792,0</coordinates></Point>
</Placemark>
<Placemark>
<name>Song Dong Momos &amp; Kathi Roll</name>
<description>Delhi NCR</description>
<Point><coordinates>77.31544264,28.45486708,0</coordinates></Point>
</Placemark>
<Placemark>
<name>Vardaan Food Corner</name>
<description>Delhi NCR</description>
<Point><coordinates>77.0923575,28.4898921,0</coordinates></Point>
</Placemark>
<Placemark>
<name>Chaska Point</name>
<description>Delhi NCR</description>
<Point><coordinates>77.283784,28.634655,0</coordinates></Point>
</Placemark>
<Placemark>
<name>CHD Chache Di Hatti</name>
<description>Delhi NCR</description>
<Point><coordinates>77.16378853,28.55873412,0</coordinates></Point>
</Placemark>
<Placemark>
<name>Fabelle Chocolate Boutique - ITC Maurya</name>
<description>Delhi NCR</description>
<Point><coordinates>77.17323359,28.59791152,0</coordinates></Point>
</Placemark>
<Placemark>
<name>The Subtle Baker</name>
<description>Kolkata</description>
<Point><coordinates>88.34320117,22.59391024,0</coordinates></Point>
</Placemark>
<Placemark>
<name>Frozen Fantasy</name>
<description>Delhi NCR</description>
<Point><coordinates>77.19390001,28.56149839,0</coordinates></Point>
</Placemark>
<Placemark>
<name>Thooso</name>
<description>Mumbai</description>
<Point><coordinates>72.83465356,19.13561686,0</coordinates></Point>
</Placemark>
<Placemark>
<name>Snickerdoodle-Virgin Bar &amp; Cafe</name>
<description>Mumbai</description>
<Point><coordinates>73.18302926,19.20503745,0</coordinates></Point>
</Placemark>
<Placemark>
<name>Rollick</name>
<description>Kolkata</description>
<Point><coordinates>88.35128333,22.55390918,0</coordinates></Point>
</Placemark>
<Placemark>
<name>Naturals Ice Cream</name>
<description>Delhi NCR</description>
<Point><coordinates>77.22203135,28.63446211,0</coordinates></Point>
</Placemark>
<Placemark>
<name>Ghar Jaisa Khana</name>
<description>Delhi NCR</description>
<Point><coordinates>77.28211049,28.68520555,0</coordinates></Point>
</Placemark>
<Placemark>
<name>Raja Sweets</name>
<description>Kolkata</description>
<Point><coordinates>88.438191,22.980279,0</coordinates></Point>
</Placemark>
<Placemark>
<name>Bake-Days</name>
<description>Delhi NCR</description>
<Point><coordinates>77.10927129,28.60714499,0</coordinates></Point>
</Placemark>
<Placemark>
<name>Kerala Cafe</name>
<description>Delhi NCR</description>
<Point><coordinates>77.29465887,28.60705492,0</coordinates></Point>
</Placemark>
<Placemark>
<name>Dana Pani Foods</name>
<description>Delhi NCR</description>
<Point><coordinates>77.3826144,28.6266412,0</coordinates></Point>
</Placemark>
<Placemark>
<name>Dil Chinese Fast Food</name>
<description>Delhi NCR</description>
<Point><coordinates>77.14409072,28.49427993,0</coordinates></Point>
</Placemark>
<Placemark>
<name>Richie&#39;s Cafe</name>
<description>Delhi NCR</description>
<Point><coordinates>77.31698256,28.44822801,0</coordinates></Point>
</Placemark>
<Placemark>
<name>Sunil Bakery</name>
<description>Delhi NCR</description>
<Point><coordinates>77.1586987,28.57329261,0</coordinates></Point>
</Placemark>
<Placemark>
<name>Techies Time to Tea</name>
<description>Delhi NCR</description>
<Point><coordinates>77.36215699,28.5691521,0</coordinates></Point>
</Placemark>
<Placemark>
<name>Chop Shop Chicken Shop</name>
<description>Delhi NCR</description>
<Point><coordinates>77.30648004,28.39222092,0</coordinates></Point>
</Placemark>
<Placemark>
<name>Shreya Restaurant &amp; Bar</name>
<description>Mumbai</description>
<Point><coordinates>72.94464994,19.19281843,0</coordinates></Point>
</Placemark>
<Placemark>
<name>S P Food Corner</name>
<description>Delhi NCR</description>
<Point><coordinates>77.19551805,28.65003138,0</coordinates></Point>
</Placemark>
<Placemark>
<name>Asad&#39;s Cafe</name>
<description>Mumbai</description>
<Point><coordinates>72.86489848,19.28810849,0</coordinates></Point>
</Placemark>
<Placemark>
<name>Zaika Muradabadi Chicken Restaurant</name>
<description>Delhi NCR</description>
<Point><coordinates>77.24439561,28.56870718,0</coordinates></Point>
</Placemark>
<Placemark>
<name>Big Boss Chikan Corner</name>
<description>Delhi NCR</description>
<Point><coordinates>77.29672149,28.36274249,0</coordinates></Point>
</Placemark>
<Placemark>
<name>Burger Box</name>
<description>Delhi NCR</description>
<Point><coordinates>77.29771759,28.53289308,0</coordinates></Point>
</Placemark>
<Placemark>
<name>The Ramkrishna Sweets</name>
<description>Kolkata</description>
<Point><coordinates>88.43460616,22.64717834,0</coordinates></Point>
</Placemark>
<Placemark>
<name>Bedouin - Sher e Bengal</name>
<description>Kolkata</description>
<Point><coordinates>88.36285539,22.51914871,0</coordinates></Point>
</Placemark>
<Placemark>
<name>The Big Chill Cafe</name>
<description>Delhi NCR</description>
<Point><coordinates>77.079457,28.441444,0</coordinates></Point>
</Placemark>
<Placemark>
<name>Saini Foods</name>
<description>Delhi NCR</description>
<Point><coordinates>77.04058494,28.45293336,0</coordinates></Point>
</Placemark>
<Placemark>
<name>Aavakay</name>
<description>Mumbai</description>
<Point><coordinates>72.87127778,19.21228877,0</coordinates></Point>
</Placemark>
<Placemark>
<name>Apni Rasoi</name>
<description>Delhi NCR</description>
<Point><coordinates>76.99697457,28.59104358,0</coordinates></Point>
</Placemark>
<Placemark>
<name>Calcutta Chiit Chaat</name>
<description>Kolkata</description>
<Point><coordinates>88.41293458,22.55739592,0</coordinates></Point>
</Placemark>
<Placemark>
<name>Madan Sweets &amp; Bakers</name>
<description>Delhi NCR</description>
<Point><coordinates>77.11824227,28.63607205,0</coordinates></Point>
</Placemark>
<Placemark>
<name>Choudhary  Food Station</name>
<description>Delhi NCR</description>
<Point><coordinates>0,0,0</coordinates></Point>
</Placemark>
<Placemark>
<name>King Of Food</name>
<description>Delhi NCR</description>
<Point><coordinates>0,0,0</coordinates></Point>
</Placemark>
<Placemark>
<name>Awadhi Biryani</name>
<description>Delhi NCR</description>
<Point><coordinates>77.1328953,28.7157753,0</coordinates></Point>
</Placemark>
<Placemark>
<name>Guddu Ji Malai Chaap Wale</name>
<description>Delhi NCR</description>
<Point><coordinates>77.466687,28.671665,0</coordinates></Point>
</Placemark>
<Placemark>
<name>La Taj</name>
<description>Delhi NCR</description>
<Point><coordinates>77.31056303,28.4803683,0</coordinates></Point>
</Placemark>
<Placemark>
<name>Tulsa Hotel</name>
<description>Mumbai</description>
<Point><coordinates>73.099023,19.251674,0</coordinates></Point>
</Placemark>
<Placemark>
<name>BurgerFi Cafe</name>
<description>Delhi NCR</description>
<Point><coordinates>77.35802002,28.62796207,0</coordinates></Point>
</Placemark>
<Placemark>
<name>Grillz Fries &amp; More</name>
<description>Delhi NCR</description>
<Point><coordinates>77.09968876,28.63728854,0</coordinates></Point>
</Placemark>
<Placemark>
<name>Hometaste</name>
<description>Delhi NCR</description>
<Point><coordinates>77.09257454,28.42696586,0</coordinates></Point>
</Placemark>
<Placemark>
<name>Amor Churros</name>
<description>Mumbai</description>
<Point><coordinates>72.96753287,19.19298561,0</coordinates></Point>
</Placemark>
<Placemark>
<name>The Zaika King</name>
<description>Delhi NCR</description>
<Point><coordinates>77.338228,28.5971488,0</coordinates></Point>
</Placemark>
<Placemark>
<name>Only For Foodies</name>
<description>Kolkata</description>
<Point><coordinates>88.35038949,22.74242406,0</coordinates></Point>
</Placemark>
<Placemark>
<name>Cumin</name>
<description>Kolkata</description>
<Point><coordinates>88.42575755,22.61057632,0</coordinates></Point>
</Placemark>
<Placemark>
<name>West India Co. Bar &amp; Kitchen</name>
<description>Mumbai</description>
<Point><coordinates>72.98350275,19.25526679,0</coordinates></Point>
</Placemark>
<Placemark>
<name>Flavours of London</name>
<description>Delhi NCR</description>
<Point><coordinates>77.0468329,28.5771009,0</coordinates></Point>
</Placemark>
<Placemark>
<name>Shri Murli Wala</name>
<description>Delhi NCR</description>
<Point><coordinates>77.03082137,28.618872,0</coordinates></Point>
</Placemark>
<Placemark>
<name>Dragonfly Experience</name>
<description>Delhi NCR</description>
<Point><coordinates>77.12299,28.55059,0</coordinates></Point>
</Placemark>
<Placemark>
<name>The Foodiez</name>
<description>Kolkata</description>
<Point><coordinates>88.3249303,22.53527353,0</coordinates></Point>
</Placemark>
<Placemark>
<name>Arhaan Chicken Corner</name>
<description>Delhi NCR</description>
<Point><coordinates>77.17663161,28.50738658,0</coordinates></Point>
</Placemark>
<Placemark>
<name>The Mad Teapot/The Wishing Chair</name>
<description>Delhi NCR</description>
<Point><coordinates>77.21436225,28.54925019,0</coordinates></Point>
</Placemark>
<Placemark>
<name>Bakers Reflection</name>
<description>Delhi NCR</description>
<Point><coordinates>77.4132752,28.50516567,0</coordinates></Point>
</Placemark>
<Placemark>
<name>Jai Jagannath Payal Dhaba</name>
<description>Delhi NCR</description>
<Point><coordinates>77.1279807,28.5449918,0</coordinates></Point>
</Placemark>
<Placemark>
<name>Binge Bakery And More</name>
<description>Delhi NCR</description>
<Point><coordinates>77.06539907,28.41427534,0</coordinates></Point>
</Placemark>
<Placemark>
<name>Food Express</name>
<description>Delhi NCR</description>
<Point><coordinates>77.0446267,28.61981085,0</coordinates></Point>
</Placemark>
<Placemark>
<name>Punjabi Rasoi</name>
<description>Delhi NCR</description>
<Point><coordinates>0,0,0</coordinates></Point>
</Placemark>
<Placemark>
<name>Mumma&#39;s Kitchen</name>
<description>Mumbai</description>
<Point><coordinates>72.85021406,19.24551007,0</coordinates></Point>
</Placemark>
<Placemark>
<name>Balli Machi Wala</name>
<description>Delhi NCR</description>
<Point><coordinates>77.17283696,28.68696354,0</coordinates></Point>
</Placemark>
<Placemark>
<name>Baweja&#39;s Pizza Xpress</name>
<description>Delhi NCR</description>
<Point><coordinates>77.29359336,28.39792887,0</coordinates></Point>
</Placemark>
<Placemark>
<name>Shahi Dahi Bhalle</name>
<description>Delhi NCR</description>
<Point><coordinates>77.09818237,28.63164267,0</coordinates></Point>
</Placemark>
<Placemark>
<name>Aunty Momo</name>
<description>Delhi NCR</description>
<Point><coordinates>77.24487908,28.5622705,0</coordinates></Point>
</Placemark>
<Placemark>
<name>CLA</name>
<description>Mumbai</description>
<Point><coordinates>72.86383398,19.01849619,0</coordinates></Point>
</Placemark>
<Placemark>
<name>Republic Of Chicken</name>
<description>Kolkata</description>
<Point><coordinates>88.49080514,22.56159284,0</coordinates></Point>
</Placemark>
<Placemark>
<name>Girdharilal Sweets &amp; Namkeen</name>
<description>Delhi NCR</description>
<Point><coordinates>0,0,0</coordinates></Point>
</Placemark>
<Placemark>
<name>Nueva</name>
<description>Delhi NCR</description>
<Point><coordinates>77.17351824,28.57256681,0</coordinates></Point>
</Placemark>
<Placemark>
<name>Maa Tara Food Zone</name>
<description>Kolkata</description>
<Point><coordinates>88.42732698,22.61047945,0</coordinates></Point>
</Placemark>
<Placemark>
<name>Khalifa</name>
<description>Delhi NCR</description>
<Point><coordinates>77.16704171,28.58763153,0</coordinates></Point>
</Placemark>
<Placemark>
<name>Dolphin Restaurant</name>
<description>Kolkata</description>
<Point><coordinates>88.48102178,22.71927192,0</coordinates></Point>
</Placemark>
<Placemark>
<name>Food Plaza</name>
<description>Delhi NCR</description>
<Point><coordinates>77.47485269,28.67346772,0</coordinates></Point>
</Placemark>
<Placemark>
<name>Firdous</name>
<description>Delhi NCR</description>
<Point><coordinates>77.24389639,28.53335229,0</coordinates></Point>
</Placemark>
<Placemark>
<name>Ayyappan&#39;s - The South Indian Bistro</name>
<description>Mumbai</description>
<Point><coordinates>73.0653704,19.0345724,0</coordinates></Point>
</Placemark>
<Placemark>
<name>The Aroma of Bengal</name>
<description>Delhi NCR</description>
<Point><coordinates>76.967618,28.393393,0</coordinates></Point>
</Placemark>
<Placemark>
<name>Sam&#39;s Bakery</name>
<description>Delhi NCR</description>
<Point><coordinates>77.31453236,28.42311681,0</coordinates></Point>
</Placemark>
<Placemark>
<name>FFC Restaurant</name>
<description>Delhi NCR</description>
<Point><coordinates>77.2301201,28.6445589,0</coordinates></Point>
</Placemark>
<Placemark>
<name>Curry Pot</name>
<description>Delhi NCR</description>
<Point><coordinates>77.44351644,28.67710261,0</coordinates></Point>
</Placemark>
<Placemark>
<name>Chickenation</name>
<description>Delhi NCR</description>
<Point><coordinates>77.10569657,28.69961476,0</coordinates></Point>
</Placemark>
<Placemark>
<name>Bistro N Beans</name>
<description>Delhi NCR</description>
<Point><coordinates>77.30442345,28.58933521,0</coordinates></Point>
</Placemark>
<Placemark>
<name>Shradda</name>
<description>Mumbai</description>
<Point><coordinates>72.99230106,19.1975344,0</coordinates></Point>
</Placemark>
<Placemark>
<name>Picket Lane</name>
<description>Delhi NCR</description>
<Point><coordinates>77.05993406,28.40193897,0</coordinates></Point>
</Placemark>
<Placemark>
<name>Sunny Kebab Wala</name>
<description>Delhi NCR</description>
<Point><coordinates>77.11369358,28.63412017,0</coordinates></Point>
</Placemark>
<Placemark>
<name>Refresh Katta</name>
<description>Mumbai</description>
<Point><coordinates>73.09049942,19.22039773,0</coordinates></Point>
</Placemark>
<Placemark>
<name>Burmese Bahar</name>
<description>Kolkata</description>
<Point><coordinates>88.47875968,22.72392623,0</coordinates></Point>
</Placemark>
<Placemark>
<name>Chinese Garage</name>
<description>Delhi NCR</description>
<Point><coordinates>77.2456073,28.55816577,0</coordinates></Point>
</Placemark>
<Placemark>
<name>Sardar Kachori</name>
<description>Delhi NCR</description>
<Point><coordinates>77.180415,28.678641,0</coordinates></Point>
</Placemark>
<Placemark>
<name>Hungryy Birdz</name>
<description>Kolkata</description>
<Point><coordinates>88.31783015,22.45912716,0</coordinates></Point>
</Placemark>
<Placemark>
<name>Patiala Shahi Chicken &amp; Fish Fry</name>
<description>Delhi NCR</description>
<Point><coordinates>77.08289009,28.65922408,0</coordinates></Point>
</Placemark>
<Placemark>
<name>Cake Paradise</name>
<description>Kolkata</description>
<Point><coordinates>88.42483755,22.61350175,0</coordinates></Point>
</Placemark>
<Placemark>
<name>Smart Cafe</name>
<description>Delhi NCR</description>
<Point><coordinates>0,0,0</coordinates></Point>
</Placemark>
<Placemark>
<name>Burger King</name>
<description>Delhi NCR</description>
<Point><coordinates>77.21928477,28.52912124,0</coordinates></Point>
</Placemark>
<Placemark>
<name>The Great Bowl Of China</name>
<description>Delhi NCR</description>
<Point><coordinates>77.37647295,28.51391382,0</coordinates></Point>
</Placemark>
<Placemark>
<name>Tulsi</name>
<description>Mumbai</description>
<Point><coordinates>72.84167022,19.21310751,0</coordinates></Point>
</Placemark>
<Placemark>
<name>Anjana Cafe</name>
<description>Delhi NCR</description>
<Point><coordinates>77.08265975,28.47626716,0</coordinates></Point>
</Placemark>
<Placemark>
<name>Delivery Panda</name>
<description>Delhi NCR</description>
<Point><coordinates>77.20108867,28.69162234,0</coordinates></Point>
</Placemark>
<Placemark>
<name>Munna Di Vaishno Rasoi</name>
<description>Delhi NCR</description>
<Point><coordinates>77.09874529,28.70289407,0</coordinates></Point>
</Placemark>
<Placemark>
<name>Roll X</name>
<description>Delhi NCR</description>
<Point><coordinates>77.25693762,28.53069009,0</coordinates></Point>
</Placemark>
<Placemark>
<name>Sindhudurg</name>
<description>Mumbai</description>
<Point><coordinates>72.95524433,19.18695002,0</coordinates></Point>
</Placemark>
<Placemark>
<name>Lucky&#39;s Bakery and Patisserie</name>
<description>Delhi NCR</description>
<Point><coordinates>77.12715961,28.66587163,0</coordinates></Point>
</Placemark>
<Placemark>
<name>Dosae</name>
<description>Delhi NCR</description>
<Point><coordinates>77.2658154,28.53188099,0</coordinates></Point>
</Placemark>
<Placemark>
<name>Pizzeria Cafe</name>
<description>Delhi NCR</description>
<Point><coordinates>77.37704694,28.63976944,0</coordinates></Point>
</Placemark>
<Placemark>
<name>Chawla Chick Inn</name>
<description>Delhi NCR</description>
<Point><coordinates>76.94717903,28.36684332,0</coordinates></Point>
</Placemark>
<Placemark>
<name>Cake Point</name>
<description>Delhi NCR</description>
<Point><coordinates>77.10240785,28.60843658,0</coordinates></Point>
</Placemark>
<Placemark>
<name>Pizza Boys</name>
<description>Mumbai</description>
<Point><coordinates>72.83598326,19.1811118,0</coordinates></Point>
</Placemark>
<Placemark>
<name>Ajooba Biryani Junction</name>
<description>Kolkata</description>
<Point><coordinates>88.3927295,22.48358674,0</coordinates></Point>
</Placemark>
<Placemark>
<name>Snack Shack</name>
<description>Kolkata</description>
<Point><coordinates>88.38679673,22.45464826,0</coordinates></Point>
</Placemark>
<Placemark>
<name>Prem Rasoi</name>
<description>Delhi NCR</description>
<Point><coordinates>77.30953876,28.68797325,0</coordinates></Point>
</Placemark>
<Placemark>
<name>Coastal Reef</name>
<description>Delhi NCR</description>
<Point><coordinates>77.08169717,28.46760756,0</coordinates></Point>
</Placemark>
<Placemark>
<name>The Biryani Darbar</name>
<description>Kolkata</description>
<Point><coordinates>88.514078,22.565736,0</coordinates></Point>
</Placemark>
<Placemark>
<name>Saravana Mess</name>
<description>Delhi NCR</description>
<Point><coordinates>77.18825296,28.64541016,0</coordinates></Point>
</Placemark>
<Placemark>
<name>A1 Food Service</name>
<description>Delhi NCR</description>
<Point><coordinates>77.03122504,28.61091492,0</coordinates></Point>
</Placemark>
<Placemark>
<name>McDonald&#39;s</name>
<description>Delhi NCR</description>
<Point><coordinates>77.3246178,28.56931022,0</coordinates></Point>
</Placemark>
<Placemark>
<name>Rajubhai Dhoklawala</name>
<description>Mumbai</description>
<Point><coordinates>72.84323461,19.20554372,0</coordinates></Point>
</Placemark>
<Placemark>
<name>Duggal&#39;s Rasoi</name>
<description>Delhi NCR</description>
<Point><coordinates>77.23885585,28.57814578,0</coordinates></Point>
</Placemark>
<Placemark>
<name>Sugar &amp; Spice</name>
<description>Delhi NCR</description>
<Point><coordinates>77.16374628,28.55730676,0</coordinates></Point>
</Placemark>
<Placemark>
<name>Delish</name>
<description>Delhi NCR</description>
<Point><coordinates>77.14155436,28.66474108,0</coordinates></Point>
</Placemark>
<Placemark>
<name>Cherry Bar - The Leela Ambience Convention Hotel</name>
<description>Delhi NCR</description>
<Point><coordinates>77.30278395,28.66165092,0</coordinates></Point>
</Placemark>
<Placemark>
<name>Sindhi Meat &amp; Chicken</name>
<description>Delhi NCR</description>
<Point><coordinates>77.06000519,28.56116867,0</coordinates></Point>
</Placemark>
<Placemark>
<name>Urban Cuisine</name>
<description>Delhi NCR</description>
<Point><coordinates>77.34101247,28.40795192,0</coordinates></Point>
</Placemark>
<Placemark>
<name>Jhama Silver Sweets</name>
<description>Mumbai</description>
<Point><coordinates>73.00553307,19.09956925,0</coordinates></Point>
</Placemark>
<Placemark>
<name>Khana Khazana</name>
<description>Delhi NCR</description>
<Point><coordinates>77.01748241,28.46731577,0</coordinates></Point>
</Placemark>
<Placemark>
<name>Southy</name>
<description>Delhi NCR</description>
<Point><coordinates>77.08860587,28.46099758,0</coordinates></Point>
</Placemark>
<Placemark>
<name>TLC Kitchen</name>
<description>Delhi NCR</description>
<Point><coordinates>77.025086,28.576386,0</coordinates></Point>
</Placemark>
<Placemark>
<name>Lucknow</name>
<description>Kolkata</description>
<Point><coordinates>88.40774886,22.62208515,0</coordinates></Point>
</Placemark>
<Placemark>
<name>Nimtho</name>
<description>Delhi NCR</description>
<Point><coordinates>77.24431012,28.54723102,0</coordinates></Point>
</Placemark>
<Placemark>
<name>The Cone Factory</name>
<description>Mumbai</description>
<Point><coordinates>72.83264358,18.92826554,0</coordinates></Point>
</Placemark>
<Placemark>
<name>The Artistic Desserts</name>
<description>Kolkata</description>
<Point><coordinates>88.42336066,22.61281744,0</coordinates></Point>
</Placemark>
<Placemark>
<name>Cocoaaahhh</name>
<description>Delhi NCR</description>
<Point><coordinates>77.23276723,28.55659528,0</coordinates></Point>
</Placemark>
<Placemark>
<name>The Ahare Bahare Kitchen</name>
<description>Kolkata</description>
<Point><coordinates>88.312082,22.485758,0</coordinates></Point>
</Placemark>
<Placemark>
<name>Chawla Express</name>
<description>Delhi NCR</description>
<Point><coordinates>77.21559608,28.71251885,0</coordinates></Point>
</Placemark>
<Placemark>
<name>Raju Grill</name>
<description>Delhi NCR</description>
<Point><coordinates>77.31844068,28.37193136,0</coordinates></Point>
</Placemark>
<Placemark>
<name>Dear Donna</name>
<description>Delhi NCR</description>
<Point><coordinates>77.18871698,28.53848358,0</coordinates></Point>
</Placemark>
<Placemark>
<name>Greasy Spoon Cafe</name>
<description>Delhi NCR</description>
<Point><coordinates>0,0,0</coordinates></Point>
</Placemark>
<Placemark>
<name>Yo Munching</name>
<description>Delhi NCR</description>
<Point><coordinates>77.01404985,28.46852654,0</coordinates></Point>
</Placemark>
<Placemark>
<name>Amritsari Express</name>
<description>Delhi NCR</description>
<Point><coordinates>0,0,0</coordinates></Point>
</Placemark>
<Placemark>
<name>Chutney D&#39;Lite</name>
<description>Delhi NCR</description>
<Point><coordinates>77.20683094,28.52331167,0</coordinates></Point>
</Placemark>
<Placemark>
<name>Nanuji- By Nanumal Bhojraj</name>
<description>Mumbai</description>
<Point><coordinates>73.064282,19.040446,0</coordinates></Point>
</Placemark>
<Placemark>
<name>Yam Food Point</name>
<description>Delhi NCR</description>
<Point><coordinates>77.02240091,28.47054781,0</coordinates></Point>
</Placemark>
<Placemark>
<name>The Burger Week</name>
<description>Delhi NCR</description>
<Point><coordinates>77.11574379,28.62585848,0</coordinates></Point>
</Placemark>
<Placemark>
<name>Shahenshah</name>
<description>Delhi NCR</description>
<Point><coordinates>77.36814804,28.58335909,0</coordinates></Point>
</Placemark>
<Placemark>
<name>Orange And Chilli Biryani</name>
<description>Mumbai</description>
<Point><coordinates>72.89622501,19.06401098,0</coordinates></Point>
</Placemark>
<Placemark>
<name>Dear Chocolate</name>
<description>Delhi NCR</description>
<Point><coordinates>77.24849705,28.56657413,0</coordinates></Point>
</Placemark>
<Placemark>
<name>Wakhra Swag By Mafia Kitchen</name>
<description>Delhi NCR</description>
<Point><coordinates>77.33160287,28.57391312,0</coordinates></Point>
</Placemark>
<Placemark>
<name>Ghare Baire</name>
<description>Kolkata</description>
<Point><coordinates>88.34392671,22.52378564,0</coordinates></Point>
</Placemark>
<Placemark>
<name>TIME PASS</name>
<description>Kolkata</description>
<Point><coordinates>88.38251766,22.7024616,0</coordinates></Point>
</Placemark>
<Placemark>
<name>Night Out cafe</name>
<description>Delhi NCR</description>
<Point><coordinates>77.1602802,28.7146615,0</coordinates></Point>
</Placemark>
<Placemark>
<name>Damru Paan Shop</name>
<description>Mumbai</description>
<Point><coordinates>72.84775078,19.22050632,0</coordinates></Point>
</Placemark>
<Placemark>
<name>Gujrati Basa</name>
<description>Kolkata</description>
<Point><coordinates>88.35553698,22.57918445,0</coordinates></Point>
</Placemark>
<Placemark>
<name>Punjabi Rasoi</name>
<description>Delhi NCR</description>
<Point><coordinates>77.09489297,28.49166094,0</coordinates></Point>
</Placemark>
<Placemark>
<name>Om Bakers</name>
<description>Delhi NCR</description>
<Point><coordinates>77.16712654,28.72998574,0</coordinates></Point>
</Placemark>
<Placemark>
<name>Cafe Youth</name>
<description>Delhi NCR</description>
<Point><coordinates>77.31232356,28.59778553,0</coordinates></Point>
</Placemark>
<Placemark>
<name>Hotel White Castle</name>
<description>Delhi NCR</description>
<Point><coordinates>77.38572791,28.54299317,0</coordinates></Point>
</Placemark>
<Placemark>
<name>Modi Bakery</name>
<description>Delhi NCR</description>
<Point><coordinates>77.24826034,28.58240312,0</coordinates></Point>
</Placemark>
<Placemark>
<name>Manjeet Chicken Centre</name>
<description>Delhi NCR</description>
<Point><coordinates>77.21626762,28.71177485,0</coordinates></Point>
</Placemark>
<Placemark>
<name>New Airport Restaurant</name>
<description>Mumbai</description>
<Point><coordinates>72.87550595,19.10972332,0</coordinates></Point>
</Placemark>
<Placemark>
<name>Cafe Rendezvous</name>
<description>Delhi NCR</description>
<Point><coordinates>77.21306708,28.53956895,0</coordinates></Point>
</Placemark>
<Placemark>
<name>The Burger Homes</name>
<description>Delhi NCR</description>
<Point><coordinates>77.048966,28.456182,0</coordinates></Point>
</Placemark>
<Placemark>
<name>My Bar Headquarters</name>
<description>Delhi NCR</description>
<Point><coordinates>77.21967202,28.63053913,0</coordinates></Point>
</Placemark>
<Placemark>
<name>Karan Momos Corner</name>
<description>Mumbai</description>
<Point><coordinates>73.18019215,19.20224581,0</coordinates></Point>
</Placemark>
<Placemark>
<name>Juice Bar</name>
<description>Delhi NCR</description>
<Point><coordinates>77.05464743,28.72964558,0</coordinates></Point>
</Placemark>
<Placemark>
<name>Oye Hotdogs</name>
<description>Delhi NCR</description>
<Point><coordinates>77.25536987,28.52838571,0</coordinates></Point>
</Placemark>
<Placemark>
<name>Tasty Place</name>
<description>Delhi NCR</description>
<Point><coordinates>77.03203876,28.63342657,0</coordinates></Point>
</Placemark>
<Placemark>
<name>Zoe</name>
<description>Delhi NCR</description>
<Point><coordinates>77.09081467,28.49671676,0</coordinates></Point>
</Placemark>
<Placemark>
<name>Heart Bites</name>
<description>Kolkata</description>
<Point><coordinates>88.371433,22.485325,0</coordinates></Point>
</Placemark>
<Placemark>
<name>Candle Heart Restaurant</name>
<description>Delhi NCR</description>
<Point><coordinates>77.42176741,28.64121393,0</coordinates></Point>
</Placemark>
<Placemark>
<name>Teens Cafe Fast Food</name>
<description>Delhi NCR</description>
<Point><coordinates>77.29603484,28.64275432,0</coordinates></Point>
</Placemark>
<Placemark>
<name>O Zone Restaurant &amp; Bar</name>
<description>Kolkata</description>
<Point><coordinates>88.43130335,22.61705105,0</coordinates></Point>
</Placemark>
<Placemark>
<name>Sesame Street Wok Dis Way</name>
<description>Delhi NCR</description>
<Point><coordinates>0,0,0</coordinates></Point>
</Placemark>
<Placemark>
<name>Tingly Vingly</name>
<description>Mumbai</description>
<Point><coordinates>72.82739047,18.99636197,0</coordinates></Point>
</Placemark>
<Placemark>
<name>The Royal Spice</name>
<description>Kolkata</description>
<Point><coordinates>88.37451596,22.70334527,0</coordinates></Point>
</Placemark>
<Placemark>
<name>Park Balluchi</name>
<description>Delhi NCR</description>
<Point><coordinates>77.38940287,28.57120589,0</coordinates></Point>
</Placemark>
<Placemark>
<name>Vaishu&#39;s Noodles</name>
<description>Delhi NCR</description>
<Point><coordinates>77.091536,28.410548,0</coordinates></Point>
</Placemark>
<Placemark>
<name>Jai Mata Di Fast Food Corner</name>
<description>Delhi NCR</description>
<Point><coordinates>0,0,0</coordinates></Point>
</Placemark>
<Placemark>
<name>Omelettes A Multi Cuisine Restaurant</name>
<description>Delhi NCR</description>
<Point><coordinates>77.17753418,28.64334075,0</coordinates></Point>
</Placemark>
<Placemark>
<name>Pahalwan Da Dhaba</name>
<description>Delhi NCR</description>
<Point><coordinates>77.01923188,28.47122804,0</coordinates></Point>
</Placemark>
<Placemark>
<name>Shree Bikaner Sweets</name>
<description>Delhi NCR</description>
<Point><coordinates>77.26636559,28.5717568,0</coordinates></Point>
</Placemark>
<Placemark>
<name>Lakeside</name>
<description>Mumbai</description>
<Point><coordinates>72.82631289,19.40998153,0</coordinates></Point>
</Placemark>
<Placemark>
<name>Haldiram&#39;s</name>
<description>Delhi NCR</description>
<Point><coordinates>77.22226739,28.63423523,0</coordinates></Point>
</Placemark>
<Placemark>
<name>Noorani Restaurant</name>
<description>Mumbai</description>
<Point><coordinates>73.0248091,19.16905789,0</coordinates></Point>
</Placemark>
<Placemark>
<name>Prince Misthaan cafe</name>
<description>Delhi NCR</description>
<Point><coordinates>77.2296381,28.51479204,0</coordinates></Point>
</Placemark>
<Placemark>
<name>A K Foods</name>
<description>Delhi NCR</description>
<Point><coordinates>77.4342979,28.6309511,0</coordinates></Point>
</Placemark>
<Placemark>
<name>The Tasty Bakers &amp; Confectioners</name>
<description>Delhi NCR</description>
<Point><coordinates>77.39921138,28.58506549,0</coordinates></Point>
</Placemark>
<Placemark>
<name>Classic Snacks</name>
<description>Kolkata</description>
<Point><coordinates>88.42753887,22.61046026,0</coordinates></Point>
</Placemark>
<Placemark>
<name>Tobasco Kitchen</name>
<description>Delhi NCR</description>
<Point><coordinates>77.09475014,28.49290974,0</coordinates></Point>
</Placemark>
<Placemark>
<name>Blossom Food Plaza</name>
<description>Kolkata</description>
<Point><coordinates>88.34897764,22.62017007,0</coordinates></Point>
</Placemark>
<Placemark>
<name>The Courtyard Cafe</name>
<description>Delhi NCR</description>
<Point><coordinates>77.33398709,28.53932389,0</coordinates></Point>
</Placemark>
<Placemark>
<name>Green Pepper</name>
<description>Kolkata</description>
<Point><coordinates>88.34796678,22.6432062,0</coordinates></Point>
</Placemark>
<Placemark>
<name>Urban Tandoor</name>
<description>Delhi NCR</description>
<Point><coordinates>77.0479253,28.453299,0</coordinates></Point>
</Placemark>
<Placemark>
<name>Chobdar Express</name>
<description>Delhi NCR</description>
<Point><coordinates>77.07192253,28.5836323,0</coordinates></Point>
</Placemark>
<Placemark>
<name>Aanya’s Amritsari Nutri Kulcha</name>
<description>Delhi NCR</description>
<Point><coordinates>77.09978331,28.42590852,0</coordinates></Point>
</Placemark>
<Placemark>
<name>Standard Ice Cream</name>
<description>Delhi NCR</description>
<Point><coordinates>77.1600089,28.7106808,0</coordinates></Point>
</Placemark>
<Placemark>
<name>Foodiejuana</name>
<description>Delhi NCR</description>
<Point><coordinates>0,0,0</coordinates></Point>
</Placemark>
<Placemark>
<name>Creamy Nuts</name>
<description>Mumbai</description>
<Point><coordinates>73.02489091,19.02996995,0</coordinates></Point>
</Placemark>
<Placemark>
<name>Late Lateefe</name>
<description>Delhi NCR</description>
<Point><coordinates>77.28632558,28.63237719,0</coordinates></Point>
</Placemark>
<Placemark>
<name>Ishan Fast Food</name>
<description>Delhi NCR</description>
<Point><coordinates>77.12564483,28.71795537,0</coordinates></Point>
</Placemark>
<Placemark>
<name>Baby Got Bacon</name>
<description>Delhi NCR</description>
<Point><coordinates>77.36275211,28.57810456,0</coordinates></Point>
</Placemark>
<Placemark>
<name>Paratha&#39;s</name>
<description>Mumbai</description>
<Point><coordinates>72.91174024,19.11957076,0</coordinates></Point>
</Placemark>
<Placemark>
<name>New Bismillah Caterers</name>
<description>Mumbai</description>
<Point><coordinates>72.98989814,19.16130555,0</coordinates></Point>
</Placemark>
<Placemark>
<name>Duke of Food</name>
<description>Delhi NCR</description>
<Point><coordinates>77.2188174,28.53080673,0</coordinates></Point>
</Placemark>
<Placemark>
<name>Kishan Cafe</name>
<description>Kolkata</description>
<Point><coordinates>88.35319374,22.58117966,0</coordinates></Point>
</Placemark>
<Placemark>
<name>AMA Cafe</name>
<description>Delhi NCR</description>
<Point><coordinates>77.22841937,28.70258176,0</coordinates></Point>
</Placemark>
<Placemark>
<name>New Delhi Metro Food Plaza</name>
<description>Delhi NCR</description>
<Point><coordinates>77.22567,28.647875,0</coordinates></Point>
</Placemark>
<Placemark>
<name>Peppers &amp; Pipes</name>
<description>Delhi NCR</description>
<Point><coordinates>77.14524977,28.71473975,0</coordinates></Point>
</Placemark>
<Placemark>
<name>Hariram Sweets</name>
<description>Delhi NCR</description>
<Point><coordinates>77.19906259,28.7546584,0</coordinates></Point>
</Placemark>
<Placemark>
<name>Ashoka Bar &amp; Restaurant</name>
<description>Kolkata</description>
<Point><coordinates>88.35160855,22.5646286,0</coordinates></Point>
</Placemark>
<Placemark>
<name>New Royal Biryani</name>
<description>Kolkata</description>
<Point><coordinates>88.32707774,22.49981669,0</coordinates></Point>
</Placemark>
<Placemark>
<name>Woods Cafe</name>
<description>Delhi NCR</description>
<Point><coordinates>77.38829244,28.67707613,0</coordinates></Point>
</Placemark>
<Placemark>
<name>Just Coffee &amp; More</name>
<description>Delhi NCR</description>
<Point><coordinates>77.17391487,28.55614677,0</coordinates></Point>
</Placemark>
<Placemark>
<name>Hot Spot Pizza</name>
<description>Delhi NCR</description>
<Point><coordinates>77.45456614,28.69055207,0</coordinates></Point>
</Placemark>
<Placemark>
<name>Chacha Chaudhary Junction</name>
<description>Delhi NCR</description>
<Point><coordinates>77.08981622,28.72975495,0</coordinates></Point>
</Placemark>
<Placemark>
<name>Hari Om Bhojanalaya</name>
<description>Delhi NCR</description>
<Point><coordinates>77.19796054,28.69223232,0</coordinates></Point>
</Placemark>
<Placemark>
<name>AAPS 3SQUARE</name>
<description>Mumbai</description>
<Point><coordinates>73.097259,19.018932,0</coordinates></Point>
</Placemark>
<Placemark>
<name>R.K. Dhaba</name>
<description>Delhi NCR</description>
<Point><coordinates>77.38072157,28.59077245,0</coordinates></Point>
</Placemark>
<Placemark>
<name>Crunchy Street</name>
<description>Delhi NCR</description>
<Point><coordinates>77.450286,28.67627604,0</coordinates></Point>
</Placemark>
<Placemark>
<name>Tian - Asian Cuisine Studio - ITC Maurya</name>
<description>Delhi NCR</description>
<Point><coordinates>77.17331171,28.59796716,0</coordinates></Point>
</Placemark>
<Placemark>
<name>Khane Khas</name>
<description>Mumbai</description>
<Point><coordinates>72.83087298,19.06547341,0</coordinates></Point>
</Placemark>
<Placemark>
<name>36 China Town</name>
<description>Delhi NCR</description>
<Point><coordinates>77.11368553,28.73557015,0</coordinates></Point>
</Placemark>
<Placemark>
<name>The Albela&#39;s Kitchen</name>
<description>Kolkata</description>
<Point><coordinates>88.29623502,22.56289725,0</coordinates></Point>
</Placemark>
<Placemark>
<name>J J Delicacies</name>
<description>Delhi NCR</description>
<Point><coordinates>77.0359521,28.4575256,0</coordinates></Point>
</Placemark>
<Placemark>
<name>The Roll Xpress</name>
<description>Delhi NCR</description>
<Point><coordinates>77.28605,28.62951,0</coordinates></Point>
</Placemark>
<Placemark>
<name>Bang Bang Cafe</name>
<description>Delhi NCR</description>
<Point><coordinates>77.08095755,28.63016686,0</coordinates></Point>
</Placemark>
<Placemark>
<name>Sukoon - The Cafe</name>
<description>Delhi NCR</description>
<Point><coordinates>77.30744328,28.46931643,0</coordinates></Point>
</Placemark>
<Placemark>
<name>1Tablespoon Italian Ice Cream</name>
<description>Mumbai</description>
<Point><coordinates>72.85786305,19.02754017,0</coordinates></Point>
</Placemark>
<Placemark>
<name>Banter</name>
<description>Delhi NCR</description>
<Point><coordinates>77.1833152,28.6434865,0</coordinates></Point>
</Placemark>
<Placemark>
<name>Duke Bar &amp; Restaurant</name>
<description>Kolkata</description>
<Point><coordinates>88.3538663,22.56666458,0</coordinates></Point>
</Placemark>
<Placemark>
<name>Chai Addaa</name>
<description>Kolkata</description>
<Point><coordinates>88.35764654,22.50213767,0</coordinates></Point>
</Placemark>
<Placemark>
<name>My Tasty Corn</name>
<description>Delhi NCR</description>
<Point><coordinates>77.4356341,28.65477715,0</coordinates></Point>
</Placemark>
<Placemark>
<name>Badami Sweet &amp; Restaurant</name>
<description>Delhi NCR</description>
<Point><coordinates>77.4424218,28.5787588,0</coordinates></Point>
</Placemark>
<Placemark>
<name>Lazeez Chicken</name>
<description>Delhi NCR</description>
<Point><coordinates>77.0852045,28.72852866,0</coordinates></Point>
</Placemark>
<Placemark>
<name>Bhookkam</name>
<description>Delhi NCR</description>
<Point><coordinates>77.20647488,28.51837997,0</coordinates></Point>
</Placemark>
<Placemark>
<name>Neel Ki Biryani</name>
<description>Mumbai</description>
<Point><coordinates>72.8829319,19.1096507,0</coordinates></Point>
</Placemark>
<Placemark>
<name>Ganesh Bikanerwala</name>
<description>Delhi NCR</description>
<Point><coordinates>77.43545305,28.65885192,0</coordinates></Point>
</Placemark>
<Placemark>
<name>Hungry Ninja</name>
<description>Delhi NCR</description>
<Point><coordinates>77.13115476,28.64784202,0</coordinates></Point>
</Placemark>
<Placemark>
<name>Bhushan Cake Shop</name>
<description>Delhi NCR</description>
<Point><coordinates>77.26978172,28.70023028,0</coordinates></Point>
</Placemark>
<Placemark>
<name>Bengal Sweet Corner</name>
<description>Delhi NCR</description>
<Point><coordinates>77.19903611,28.56545341,0</coordinates></Point>
</Placemark>
<Placemark>
<name>Good Food Innovations LLP</name>
<description>Delhi NCR</description>
<Point><coordinates>0,0,0</coordinates></Point>
</Placemark>
<Placemark>
<name>Ammeez Kitchen</name>
<description>Mumbai</description>
<Point><coordinates>72.88002513,19.12052269,0</coordinates></Point>
</Placemark>
<Placemark>
<name>Shahi Mahal Restaurant</name>
<description>Kolkata</description>
<Point><coordinates>88.28765061,22.54852547,0</coordinates></Point>
</Placemark>
<Placemark>
<name>South Delhi Chicken Corner</name>
<description>Delhi NCR</description>
<Point><coordinates>77.22272269,28.5364318,0</coordinates></Point>
</Placemark>
<Placemark>
<name>Sunny Sweets</name>
<description>Delhi NCR</description>
<Point><coordinates>77.1018751,28.47151068,0</coordinates></Point>
</Placemark>
<Placemark>
<name>J V&#39;s Fried Chicken</name>
<description>Delhi NCR</description>
<Point><coordinates>77.03065004,28.62010987,0</coordinates></Point>
</Placemark>
<Placemark>
<name>Barbeque Nation</name>
<description>Delhi NCR</description>
<Point><coordinates>77.22078446,28.63032577,0</coordinates></Point>
</Placemark>
<Placemark>
<name>I.H.O.B - Indian House of Biryani</name>
<description>Delhi NCR</description>
<Point><coordinates>77.36620244,28.53778346,0</coordinates></Point>
</Placemark>
<Placemark>
<name>Chinese Cuisine</name>
<description>Delhi NCR</description>
<Point><coordinates>77.43648939,28.65412105,0</coordinates></Point>
</Placemark>
<Placemark>
<name>Cafe Istaa</name>
<description>Mumbai</description>
<Point><coordinates>72.86112964,19.04177665,0</coordinates></Point>
</Placemark>
<Placemark>
<name>Pepsi Snacks Bar</name>
<description>Kolkata</description>
<Point><coordinates>88.3520082,22.56037573,0</coordinates></Point>
</Placemark>
<Placemark>
<name>Leafy Affaire</name>
<description>Kolkata</description>
<Point><coordinates>88.35256174,22.55130668,0</coordinates></Point>
</Placemark>
<Placemark>
<name>Masala Mix</name>
<description>Delhi NCR</description>
<Point><coordinates>77.15849955,28.57321812,0</coordinates></Point>
</Placemark>
<Placemark>
<name>Jugnu Chaap</name>
<description>Delhi NCR</description>
<Point><coordinates>77.11198702,28.7091698,0</coordinates></Point>
</Placemark>
<Placemark>
<name>Kitchens By SRR Masala</name>
<description>Mumbai</description>
<Point><coordinates>72.88012236,19.11696268,0</coordinates></Point>
</Placemark>
<Placemark>
<name>Wake Up Cafe</name>
<description>Delhi NCR</description>
<Point><coordinates>77.21680038,28.53520825,0</coordinates></Point>
</Placemark>
<Placemark>
<name>Royal Bakers</name>
<description>Delhi NCR</description>
<Point><coordinates>0,0,0</coordinates></Point>
</Placemark>
<Placemark>
<name>Bro Cake</name>
<description>Delhi NCR</description>
<Point><coordinates>77.08151512,28.47308215,0</coordinates></Point>
</Placemark>
<Placemark>
<name>Noida Chinese Hut</name>
<description>Delhi NCR</description>
<Point><coordinates>0,0,0</coordinates></Point>
</Placemark>
<Placemark>
<name>Royal Fast Food Hub</name>
<description>Kolkata</description>
<Point><coordinates>88.34374432,22.70232335,0</coordinates></Point>
</Placemark>
<Placemark>
<name>New Raj Dairy</name>
<description>Delhi NCR</description>
<Point><coordinates>77.284052,28.658339,0</coordinates></Point>
</Placemark>
<Placemark>
<name>Pishoriya Vegetarian Dhaba</name>
<description>Delhi NCR</description>
<Point><coordinates>77.11686529,28.66716808,0</coordinates></Point>
</Placemark>
<Placemark>
<name>Ambarsaria</name>
<description>Delhi NCR</description>
<Point><coordinates>77.330634,28.6684351,0</coordinates></Point>
</Placemark>
<Placemark>
<name>Malvan Kinara</name>
<description>Mumbai</description>
<Point><coordinates>72.89480545,19.06716303,0</coordinates></Point>
</Placemark>
<Placemark>
<name>Kerala - Kingdom of Dreams</name>
<description>Delhi NCR</description>
<Point><coordinates>77.06818219,28.4685009,0</coordinates></Point>
</Placemark>
<Placemark>
<name>New Arsalan Biryani</name>
<description>Kolkata</description>
<Point><coordinates>88.34110402,22.72385108,0</coordinates></Point>
</Placemark>
<Placemark>
<name>Sana Egg Roll</name>
<description>Delhi NCR</description>
<Point><coordinates>77.16983791,28.56098336,0</coordinates></Point>
</Placemark>
<Placemark>
<name>Brew Sixteen</name>
<description>Delhi NCR</description>
<Point><coordinates>77.08602928,28.48214091,0</coordinates></Point>
</Placemark>
<Placemark>
<name>Lobby Bar - Zone By The Park</name>
<description>Kolkata</description>
<Point><coordinates>88.474664,22.582356,0</coordinates></Point>
</Placemark>
<Placemark>
<name>Ishu Paan</name>
<description>Delhi NCR</description>
<Point><coordinates>77.38021798,28.57156511,0</coordinates></Point>
</Placemark>
<Placemark>
<name>Chaat Chobara</name>
<description>Delhi NCR</description>
<Point><coordinates>77.08207536,28.47821784,0</coordinates></Point>
</Placemark>
<Placemark>
<name>New Modern Cafe</name>
<description>Mumbai</description>
<Point><coordinates>73.09036598,19.21920957,0</coordinates></Point>
</Placemark>
<Placemark>
<name>Mishti&#39;s Kitchen</name>
<description>Delhi NCR</description>
<Point><coordinates>77.3694886,28.5791586,0</coordinates></Point>
</Placemark>
<Placemark>
<name>Anjali Resaturant</name>
<description>Delhi NCR</description>
<Point><coordinates>77.30670266,28.59136359,0</coordinates></Point>
</Placemark>
<Placemark>
<name>Yummy In Tummy</name>
<description>Delhi NCR</description>
<Point><coordinates>77.36901306,28.64737595,0</coordinates></Point>
</Placemark>
<Placemark>
<name>Rajinder Da Dhaba</name>
<description>Delhi NCR</description>
<Point><coordinates>77.19927415,28.56544722,0</coordinates></Point>
</Placemark>
<Placemark>
<name>Jia Mom&#39;s</name>
<description>Delhi NCR</description>
<Point><coordinates>77.109966,28.668635,0</coordinates></Point>
</Placemark>
<Placemark>
<name>Om Vati Sweet</name>
<description>Delhi NCR</description>
<Point><coordinates>77.04614852,28.4393851,0</coordinates></Point>
</Placemark>
<Placemark>
<name>Little Loco Pops</name>
<description>Mumbai</description>
<Point><coordinates>72.83909403,19.17450193,0</coordinates></Point>
</Placemark>
<Placemark>
<name>Gravies</name>
<description>Delhi NCR</description>
<Point><coordinates>77.20766075,28.55788425,0</coordinates></Point>
</Placemark>
<Placemark>
<name>Asharam Foods</name>
<description>Delhi NCR</description>
<Point><coordinates>77.22756341,28.65622967,0</coordinates></Point>
</Placemark>
<Placemark>
<name>Bell Pepper</name>
<description>Kolkata</description>
<Point><coordinates>88.389615,22.721012,0</coordinates></Point>
</Placemark>
<Placemark>
<name>Rapture</name>
<description>Delhi NCR</description>
<Point><coordinates>77.31811881,28.67120708,0</coordinates></Point>
</Placemark>
<Placemark>
<name>Kamaluddin Restaurant</name>
<description>Mumbai</description>
<Point><coordinates>72.84063924,18.9763383,0</coordinates></Point>
</Placemark>
<Placemark>
<name>Anju Restaurant</name>
<description>Delhi NCR</description>
<Point><coordinates>77.17076529,28.55690979,0</coordinates></Point>
</Placemark>
<Placemark>
<name>Choudhary Gohana Famous Jalebi</name>
<description>Delhi NCR</description>
<Point><coordinates>77.03134842,28.45112813,0</coordinates></Point>
</Placemark>
<Placemark>
<name>D&#39;Momo Factory</name>
<description>Delhi NCR</description>
<Point><coordinates>77.14173889,28.70529747,0</coordinates></Point>
</Placemark>
<Placemark>
<name>New Town Bakery</name>
<description>Kolkata</description>
<Point><coordinates>88.44592005,22.62782311,0</coordinates></Point>
</Placemark>
<Placemark>
<name>Bowl Baby Bowl</name>
<description>Delhi NCR</description>
<Point><coordinates>0,0,0</coordinates></Point>
</Placemark>
<Placemark>
<name>Lazeez Chicken Corner</name>
<description>Delhi NCR</description>
<Point><coordinates>77.30760824,28.59187023,0</coordinates></Point>
</Placemark>
<Placemark>
<name>Fabelle Exquisite Chocolates</name>
<description>Kolkata</description>
<Point><coordinates>88.36567339,22.5390986,0</coordinates></Point>
</Placemark>
<Placemark>
<name>Bunooro Barbeque</name>
<description>Delhi NCR</description>
<Point><coordinates>76.98008403,28.61323456,0</coordinates></Point>
</Placemark>
<Placemark>
<name>Nawab Seekh Corner</name>
<description>Mumbai</description>
<Point><coordinates>72.83456471,18.95017288,0</coordinates></Point>
</Placemark>
<Placemark>
<name>Vrinda&#39;s Food</name>
<description>Delhi NCR</description>
<Point><coordinates>77.29015745,28.67649018,0</coordinates></Point>
</Placemark>
<Placemark>
<name>Don&#39;s Den</name>
<description>Delhi NCR</description>
<Point><coordinates>0,0,0</coordinates></Point>
</Placemark>
<Placemark>
<name>Hotel Ambika Pure Veg</name>
<description>Mumbai</description>
<Point><coordinates>73.08979802,19.21868119,0</coordinates></Point>
</Placemark>
<Placemark>
<name>Chowpati</name>
<description>Delhi NCR</description>
<Point><coordinates>77.3536098,28.57430166,0</coordinates></Point>
</Placemark>
<Placemark>
<name>Lust By The Pool - Radisson Blu Kaushambi Delhi NCR</name>
<description>Delhi NCR</description>
<Point><coordinates>77.32799303,28.6375113,0</coordinates></Point>
</Placemark>
<Placemark>
<name>KSC</name>
<description>Delhi NCR</description>
<Point><coordinates>77.06777383,28.62807861,0</coordinates></Point>
</Placemark>
<Placemark>
<name>Bukhara - ITC Maurya</name>
<description>Delhi NCR</description>
<Point><coordinates>77.17324533,28.59792182,0</coordinates></Point>
</Placemark>
<Placemark>
<name>Zaiqa Mediterranean And Asian Cuisine</name>
<description>Kolkata</description>
<Point><coordinates>88.35711714,22.55213559,0</coordinates></Point>
</Placemark>
<Placemark>
<name>Jayka The Restaurant</name>
<description>Delhi NCR</description>
<Point><coordinates>77.36948077,28.64783113,0</coordinates></Point>
</Placemark>
<Placemark>
<name>Lorreta&#39;s Sweet Inspirations</name>
<description>Mumbai</description>
<Point><coordinates>72.80674107,19.3605459,0</coordinates></Point>
</Placemark>
<Placemark>
<name>Kushal Ki Rasoi</name>
<description>Delhi NCR</description>
<Point><coordinates>77.16992475,28.55473468,0</coordinates></Point>
</Placemark>
<Placemark>
<name>Aashirwad</name>
<description>Delhi NCR</description>
<Point><coordinates>77.29242124,28.60899701,0</coordinates></Point>
</Placemark>
<Placemark>
<name>Jadukadai</name>
<description>Kolkata</description>
<Point><coordinates>88.34266204,22.69831105,0</coordinates></Point>
</Placemark>
<Placemark>
<name>Shri Ram Bhojnalaya</name>
<description>Delhi NCR</description>
<Point><coordinates>77.205126,28.710517,0</coordinates></Point>
</Placemark>
<Placemark>
<name>Royal Cafe</name>
<description>Delhi NCR</description>
<Point><coordinates>77.359921,28.550151,0</coordinates></Point>
</Placemark>
<Placemark>
<name>The Friendz Pizza</name>
<description>Delhi NCR</description>
<Point><coordinates>77.30534412,28.38617021,0</coordinates></Point>
</Placemark>
<Placemark>
<name>UG Cafe Bar - HHI</name>
<description>Kolkata</description>
<Point><coordinates>88.35054673,22.54162546,0</coordinates></Point>
</Placemark>
<Placemark>
<name>Mirch The Multicuisine</name>
<description>Delhi NCR</description>
<Point><coordinates>77.51443338,28.47306034,0</coordinates></Point>
</Placemark>
<Placemark>
<name>Asia</name>
<description>Delhi NCR</description>
<Point><coordinates>77.31944684,28.68030409,0</coordinates></Point>
</Placemark>
<Placemark>
<name>The Pavor&#39;s</name>
<description>Delhi NCR</description>
<Point><coordinates>77.09029969,28.61696188,0</coordinates></Point>
</Placemark>
<Placemark>
<name>Paramjeet Machi Wala</name>
<description>Delhi NCR</description>
<Point><coordinates>77.13952795,28.65619289,0</coordinates></Point>
</Placemark>
<Placemark>
<name>Mathur&#39;s Kitchen</name>
<description>Delhi NCR</description>
<Point><coordinates>77.31423464,28.68428669,0</coordinates></Point>
</Placemark>
</Document>
</kml>