name,city,telephone,address,longitude,latitude
Sainik Food,Delhi NCR,011 22486474 +91 9717806814,"C 4/1, Opposite Mother Dairy, Pandav Nagar, New Delhi",77.28487115,28.61773241
Kunal's Creamery & Eatery,Mumbai,+91 9561356690 +91 9637537499,"Shop 14, Trishul Shivdham Complex, Shiv Mandir Road, Ambarnath East, Ambernath, Mumbai",73.18428654,19.20588693
Brij Palace Restaurant,Delhi NCR,+91 9891828106,"4, Okhla Bus Stand, Jamia Nagar, Near, Jasola, New Delhi",77.29122296,28.56303436
Sahib Hotel,Delhi NCR,+91 9670005455,"121, Amrit Kaur Market, Opposite New Delhi Railway Station Gate 4, Paharganj, New Delhi",77.21829806,28.64241064
Chunky's,Kolkata,+91 8442828284,"523, G.T Road, Howrah., Shibpur, Howrah",88.33070844,22.57775822
The Food Story,Delhi NCR,+91 7065545356,"Booth 100, Sector 17, Faridabad",77.3278938,28.4101578
Manish Indian & Chinese Food Corner,Delhi NCR,+91 9319546373,"K 2, Mata Chowk, Near Maximum Muscles Gym, Mahipalpur, New Delhi",77.12931812,28.54142922
Applemint,Mumbai,+91 9820262225,"Shop 32, Hiranandani Crystal Plaza, Sector 7, Kharghar, Navi Mumbai",73.06552671,19.03339015
Way To Waffles,Delhi NCR,+91 9999835784 +91 8287183270,"15, Sector 3/A, Rachna, Vashali, Ghaziabad",77.33703308,28.63883753
Food Fantasy,Delhi NCR,00 1122794990 00 1122700251,"P-35-36, Opposite Fine Home Apartments, Mayur Vihar Phase 1, New Delhi",77.29276288,28.60820228
Friend Z Cafe,Delhi NCR,Not Available,"Opposite DTU College, Shahbad, Daulatpur, Sector 17, Rohini, New Delhi",77.11736821,28.74482325
Bunty Fast Food Centre,Kolkata,+91 9883044934,"117, Vidya Sagar Sarani, Near Behala, Kolkata",88.314698,22.474803
Nutritious Bites,Delhi NCR,+91 9999610006,"F - 10/18, Sector 15, Rohini, New Delhi",77.12973,28.735006
Bombay's Royal China,Delhi NCR,+91 9599917178 +91 9599917179,"Shop 76, DDA Market, Prashant Vihar, New Delhi",77.1370452,28.7130441
Food Village,Kolkata,033 25787860 +91 9903968613,"144, B.T. Road, Dunlop, Baranagar, Kolkata",88.37741643,22.65242669
Gazzab Family Restaurant,Delhi NCR,Not Available,"Opposite Dashrathpuri, Metro Station, Palam Dabri Road, Palam",77.08204485,28.60123052
The Bunk House,Delhi NCR,+91 9811147022 +91 9911081199,"2nd Floor, Bulding 6, Hauz Khas Village, New Delhi",77.19494037,28.55448525
AIR- An Ivory Region,Delhi NCR,011 66103930,"1/83, Third Floor, Club Road, West Punjabi Bagh, Punjabi Bagh, New Delhi",76.9869859,28.547809
Pizza Galleria,Delhi NCR,+91 9355717999 +91 9355727999,"Lower Ground Floor 11 & 40, Galleria Market, Gaur City 2, Greater Noida",77.42357522,28.61957805
Brijwasi Sweets,Mumbai,022 26122138,"17, Narottam Niwas, Nehru Road, Vile Parle East, Mumbai",72.84582663,19.09829119
Chakkhna : Beyond Peanuts,Delhi NCR,0124 4037897 +91 9999700302,"110, 1st Floor, Chakkhna, The Sapphire Mall, Opposite Orchid Petals, Sector 49, Gurgaon",77.04911973,28.41173959
Truffle Tangles,Delhi NCR,+91 9871567512,"Flat 122, Jasmanium 2, Vatika City, Sector 49, Near Sohna Road, Gurgaon",77.03633431,28.42824314
Pizzaman,Kolkata,033 40030299,"Shop 3, J1/16, Shaila Towers, EP And GP Block, Sector 5, Salt Lake, Kolkata",88.43544837,22.57055905
Foodee Hub,Delhi NCR,+91 9821074728 +91 9711629181,"C 31, Block B, Shisha Godam Road, Bhagwati Garden, Nawada, Uttam Nagar, New Delhi",77.03473,28.622518
Anand Special Nasta,Delhi NCR,+91 8860980781,"B 19, Som Bazar Road, Rajapuri, Uttam Nagar, New Delhi",77.05690518,28.61077982
Taste Of Kerala,Delhi NCR,+91 9818070821,"Opp BPTP Entrance Gate, Tigaon Road, Sector 82 , Faridabad, Faridabad",77.3521459,28.3987444
Pepper And Salt,Delhi NCR,+91 8586888311 +91 9810409500,"Shop 3, Club House Palm Olympia, Greater Gaur City- 2, Noida West, Gaur City 2, Greater Noida",77.42279068,28.61763028
Capri Chef Cart,Delhi NCR,+91 9818258261 011 65879272,"Near Oxford School, F Block, Vikaspuri, New Delhi",77.0715342,28.6393096
Wah Shah Ji Wah,Delhi NCR,+91 9211557048 +91 9266131618,"WZ-179, Mukherji Park, Punjabi Market Road, Tilak Nagar, New Delhi",77.10414391,28.6437065
Food Swag,Delhi NCR,+91 9999104365,"Main Road, Near Kangna Grand Banquet Hall, Uttam Nagar, New Delhi",77.05395274,28.62135892
Pizza Tree,Delhi NCR,+91 9999139198,"Ground Floor, Shop 6, VDS Market, Sector 51, Noida",77.372403,28.586718
Coffee House,Mumbai,+91 7045720606,"25, Kumtha Street, Red Building, Ballard Pier, Fort, Mumbai",72.83821218,18.93644708
Black Paper,Delhi NCR,+91 9654292303,"Shop 5, 1st Floor, A block Market, Opposite Manas Hospital, Sector 34, Noida",77.3594503,28.586476
Vivoo Chicken Corner,Delhi NCR,+91 9650464848,"Shop 1, Raja Nahar Singh Market Near Ram Mandir, Sector 3, Ballabhgarh, Faridabad",0,0
The 6 Russel Street,Kolkata,+91 9836778768 +91 8582862676,"6, Chowringhee, Kolkata",88.34964752,22.54912835
EggOMogo,Mumbai,+91 9819029605,"Shop 5, Dhandurga Society, Uthalsar Naka, Near Castle Mill, Thane West, Thane",72.978054,19.203391
The Biryani Darbar,Kolkata,+91 7908144616,"Gate 2, Shahpoorji Complex, New Town, Kolkata",88.514078,22.565736
Biryani & Kormas,Delhi NCR,+91 9773625438,"B 116, Basement, Greenfield Colony, Sector 43, Faridabad",77.29993913,28.46220371
eat.fit,Delhi NCR,Not Available,"Grand Mall, Near Sikanderpur Metro Station, MG Road, Gurgaon",77.09054947,28.47964952
Aggarwal Cake Village,Delhi NCR,+91 9560246196 +91 9560830523,"F-2/20, Mohan Garden, Pipal Wala Road, Uttam Nagar, New Delhi",77.03928106,28.62715513
Kachhomal Sweets,Mumbai,0251 2700815 +91 9320070815,"Shop 130-131, Siru Chowk, Ulhasnagar, Thane",73.16295024,19.22959213
Maa Sheetla Sweets & Caterers,Delhi NCR,+91 9213020715 +91 9810337088,"Sheetla Mata Road, Rajeev Nagar, Sector 14, Gurgaon",77.03454595,28.47373024
Crispy Masala Chicken,Kolkata,+91 9874897406,"Swagat Garden, Chalpatti, Baguihati, Kolkata",88.42623096,22.61059551
Rehdiwalaa.com,Delhi NCR,+91 9879631737,"Unit 35 & 36, Centrum Plaza, Golf Course Road, Sector 53, Gurgaon",77.10322458,28.43397952
King's Shawarma,Delhi NCR,+91 8882853504,"R-10/F-62, Block 10, Sector 10, Raj Nagar, Near Om Sweet Ghaziabad",77.44726583,28.68174802
Shri Ram Bikaner Sweet & Snacks,Delhi NCR,+91 9990139109,"D 26, IP Colony, Sector 31, Faridabad",77.31569778,28.45279364
Taj Biryani Center,Delhi NCR,+91 8447803992,"Shop 1, Islampur Village, Near Honda Showroom, Subhash Chowk, Sector 38, Near Sector 33, Gurgaon",77.03671385,28.42830653
Eat & Gulp,Delhi NCR,+91 9711676496 +91 8368023498,"Shop A-11, Street 9, Sanjay Nagar Road, Mahindra park, Azadpur, New Delhi",77.16846831,28.71925588
Caesar's Kitchen,Delhi NCR,0120 4148676,"3rd Floor, The Great India Place, Sector 38, Noida",77.32557669,28.56746722
Jain Sweets & Bakers,Delhi NCR,011 41041474 +91 9540144202,"A Block, Near Main Red Light Chowk, Opposite Vishal Mega Mart, Mahipalpur, New Delhi",77.12476574,28.54697391
Punjabi Wok,Delhi NCR,+91 9811443384 +91 9811443385,"Shop 15/27, Central Market, Near Deep Market, Ashok Vihar Phase 1, New Delhi",77.17299219,28.69338404
The Real Heavens,Delhi NCR,+91 8076597771 +91 8700756520,"Shop no.1, 1st floor opposite pillar no 226, Hoshiarpur market Sec 51 Noida.",77.36812592,28.58334819
M's Kitchen,Mumbai,+91 9833844889 022 27801019,"Plot 201, Sector 12, Vashi, Navi Mumbai",73.00122377,19.08874032
Rubaab Restaurant,Delhi NCR,011 66103527,"S-2, 1st Floor, Gamma Shopping Complex, Jagat Farm Main Market, Above Canara Bank, Gamma 1, Greater Noida",77.49822915,28.48197824
Petuk Food Parlour,Kolkata,+91 8420511676,"218, Joyrampur Jala Road, Behala, Kolkata",88.301989,22.497069
Rashmin The Mithai Shop,Mumbai,022 28443613,"Dr. Suchak Chowk, Near Railway Station, Daftary Road, Malad East, Mumbai",72.85014097,19.18775146
Cookie Man,Kolkata,+91 9836668682,"3rd Floor, South City Mall, 375, Prince Anwar Shah Road, Kolkata",88.36117499,22.5016653
Ayub's,Mumbai,+91 9821199147 +91 8655618535,"43, Dr VB Gandhi Marg, Fort, Mumbai",72.83314146,18.92832199
Welcome Chicken Corner,Delhi NCR,+91 9266110055,"Shop 27, C Block Market, East of Kailash, New Delhi",77.25688465,28.55933074
Domino's Pizza,Delhi NCR,0120 4803255 18602100000,"C-2/22, Sector 18, Noida",77.32449409,28.57037024
Swad Food & Caterers,Delhi NCR,+91 7838776669 +91 9818110729,"G 45, Vishal Tower, District Centre, Janakpuri, New Delhi",77.08084255,28.62938201
Jai Shree Ram Sweets,Delhi NCR,+91 9953145640 +91 9250529340,"Near Shiv Mandir, Sheetla Mata Road, Rajeev Nagar, Sector 14, Gurgaon",77.03478366,28.47572312
M/S Binode Behari Nag Ganesh Chandra Dutta,Kolkata,Not Available,"3A, Hare Street, Dalhousie BBD Bagh, Kolkata",88.34636249,22.57146678
Red Chilli Hub,Delhi NCR,+91 8800147345,"2/137, Block 2, Sector 5, Dakshinpuri, Tughlakabad Institutional Area, New Delhi",0,0
Sonu Shudh Bhojanalya,Delhi NCR,+91 9810541284,"A-786, GD Colony, Near Hanuman Mandir, Mayur Vihar Phase 3, New Delhi",77.33349826,28.61263795
Shree Radhey Shyam Dhaba,Delhi NCR,Not Available,"L 9, Sundar Singh Market, Mahipalpur, New Delhi",77.12557979,28.54625264
Punjabi Factory,Delhi NCR,+91 9643323323,"CSC-8, DDA Market, Opposite Remal Public School, 2nd Floor, Sector 3, Rohini, New Delhi",77.10566103,28.69963534
Pizza Terminal,Delhi NCR,011 22503012 +91 9718508297,"F-12, Jagatpuri Parwana Road, Near Reliance Fresh, Laxmi Nagar, New Delhi",77.293069,28.646626
Dunlop Hotel and Restaurant,Kolkata,033 65010761 +91 9831048694,"144/1, B.T. Road, Baranagar, Kolkata",88.3774808,22.65251271
Deseez,Delhi NCR,+91 9599299000,"702, Near Qutub Auto, Jharsa, Sector 39, Gurgaon",77.05157295,28.43863332
Chefs and Cooks Caterers,Delhi NCR,00 919711704006,"35/36, R-3 A2, Street 4, Mohan Garden, Uttam Nagar, New Delhi",77.05040518,28.63758427
The Parantha Corner,Delhi NCR,+91 7838670006 +91 9911670006,"Shop 2, B-2/99, Sector 16, Rohini, New Delhi",77.13002019,28.73751074
Biryani 99,Delhi NCR,+91 9999777636,"195, Jaipuria Sunrise Plaza, Indirapuram, Ghaziabad",77.37635762,28.63939632
Kitchen22,Delhi NCR,+91 9266661780 +91 9212136061,"Near A Block Club Defence Colony, New Delhi",77.23015677,28.57218934
Foodie,Kolkata,+91 7450014539,"Tarulia 1st Lane, Kestopur, Kolkata",88.43864053,22.58812877
Tirupati Dosa Centre,Mumbai,+91 9987289024 +91 9769861553,"Opposite Police Chowki, Behind Data Sai Mandir, 7 Bungalows, Andheri West",72.81673305,19.12861842
Chinese Express,Delhi NCR,+91 9716485669,"Shop 31, 28-29 Dividing Road, Sector 19, Faridabad",77.31104515,28.42764666
D'Brata Biryani,Kolkata,+91 6291022879,"ITI More, Kalyani, Kolkata",88.438065,22.980232
Where's My Cone?,Mumbai,+91 8291603137,"Shop 9, Corner View Building, 33rd Road, Pali Hill, Bandra West, Mumbai",72.83171251,19.06503864
Kadimi Sweets,Delhi NCR,+91 9212396988 +91 9811355160,"38, Central Road, Jangpura, New Delhi",77.24820066,28.58266574
Bikanervala,Delhi NCR,0124 4337777,"Plot 3-5, Near Leisure Valley Park, Sector 29, Gurgaon",77.06368346,28.46900519
Brewtoast,Delhi NCR,+91 9811530183 +91 9953998675,"C 11, Shop 2, Lajpat Nagar 4, Amar Colony, New Delhi",77.24370293,28.56247487
Mirwah Restaurant,Mumbai,022 61344250,"Shop 1, Ambika Apartments, Mahakali Caves Road, Mahakali, Mumbai",72.86428593,19.12347378
Ayde's,Delhi NCR,+91 9716551000,"1186, Najafgarh-Kapashera Road, Bijwasan, Near Palam Apartment, Kapashera, New Delhi",77.056529,28.53334228
Shera Ki Rasoi,Delhi NCR,+91 8009151993 +91 9891086702,"House L 73, Master Ji Building, Plot L 3, Street 1, Mahipalpur, New Delhi",77.12552615,28.54607946
Cheese Central,Delhi NCR,+91 9899020505,"Shop 1, Bhati Market, Sahedra Village, Opposite Paras Tierea, Sector 141 Sector 132, Noida",77.4144252,28.50483421
The Tummy Tickles,Delhi NCR,+91 9711685370,,0,0
Muradabad Ki Shahi Chicken Biryani,Delhi NCR,+91 9891337986 +91 7065945043,"J-11-A, Phase 2, Sheikh Sarai, New Delhi",77.22979467,28.53470045
Cafe L2L,Delhi NCR,+91 9910130279 00 1204185334,"B 7, First Floor, Near Sector 15 Metro Station, Sector 2, Noida",77.31291667,28.58517384
Sweet Sins,Delhi NCR,+91 9810293932,"Pocket 12, Kalkaji, New Delhi",77.25742478,28.52574047
Kwality,Kolkata,033 40062949 033 40013710,"17, Park Street, Park Street Area, Kolkata",88.35188147,22.55341469
Punjabi Dhaba,Mumbai,+91 8291214286 +91 8291209746,"JB Nagar, Opposite Trade Star, Andheri Kurla Road, Chakala, Mumbai",72.87003458,19.1112769
Anda's Funda,Delhi NCR,+91 8077327405 +91 9783810516,"A 56, 2nd Floor, Old Double Storey, Lajpat Nagar 4, New Delhi",77.24522341,28.56466277
Dragon Express,Mumbai,+91 9967630927 +91 7977678568,"Shop 5, Shah Prima, Opposite Glomax Mall, Sector 2, Kharghar, Navi Mumbai",73.06543954,19.03018833
Essen Foods,Delhi NCR,+91 9871600595 +91 9818624168,"Shop 2, Vill Mamura, Sector 66, Near Sector 59, Noida",77.3781674,28.6095755
Patiala Food Factory,Delhi NCR,+91 9868456777 +91 8802616953,"G27, Vardhaman City Plus Mall, Sector 23, Dwarka",77.05457166,28.5644481
S V Fast Food,Delhi NCR,+91 8527308744,"10, Ground Floor, Shakti Khand 3, Indirapuram, Ghaziabad",0,0
Royal Inn Hotel And Restaurant,Kolkata,+91 9330911734 +91 7980957574,"102/106, Halisahar Bag Station Road, Bagmore Kanchrapara, Kalyani, Kolkata",88.424211,22.952405
Goms Pizza,Delhi NCR,+91 7290990990,"Shop 2, Gambhir Singh Market, Behind Stellar Jeevan & Ace City, Sector 1, Amrapali Leisure Valley, Greater Noida",77.44944982,28.5657514
Atipriya's Kitchen,Delhi NCR,+91 7290849083,"D-53, First Floor, Rana Pratap Road, Adarsh Nagar, Azadpur, New Delhi",0,0
Hem- The Cake Shop,Mumbai,+91 9082145230,"Shop 11, Fakhri Apartment, Mathradas Road, Near Vanja Wadi, Kandivali West, Mumbai",72.84179796,19.20326439
Waah Kachori,Kolkata,+91 8240302329,"JG 2/2, Ashwini Nagar, Opposite To Abhijatri Club, Beside Petuk Mosai, Baguihati, Kolkata",88.43287949,22.61000002
Arabitia Café,Delhi NCR,+91 8448067878,"LOTS Wholesale Building, Near NSP Red Line Metro Station Gate 2 & 3, Netaji Subhash Place, New Delhi",77.15158344,28.69548839
Bharawaan Di Rasoi,Delhi NCR,+91 8929522573 +91 8929522574,"Plot 11, 18/2 Sector 15A, Sector 15, Faridabad",77.31350172,28.39321931
Bahaar Restaurant,Delhi NCR,Not Available,"Near Sikanderpur Metro Station, MG Road, Gurgaon",77.09214237,28.48046584
Hauz Khas Social,Delhi NCR,+91 7838652814,"9-A & 12, Hauz Khas Village, New Delhi",77.19443813,28.55429353
Time Out Cafe,Delhi NCR,0120 4345283 +91 7838268059,"Plot 22, Near Ashiana Green, Ahinsa Khand 2, Indirapuram, Ghaziabad",77.38221891,28.64059011
Crazy Bhukkhad,Delhi NCR,+91 9821464561,"Near Gehlot Farm, Sector 47, South City 2, Gurgaon",77.05072101,28.43018262
South Indian Corner,Delhi NCR,011 32328086 +91 9810303556,"26, DDA Market, Sector 13, Rohini, New Delhi",77.12746739,28.723778
Chennai Food Palace,Delhi NCR,+91 9891571124,"Shop 31, Sector 3-A, Vaishali, Ghaziabad",77.33637191,28.63854238
Adarsh Pure Veg,Mumbai,022 25780162 022 25784866,"Opposite Petrol Pump, LBS Marg, Vikhroli West, Vikhroli, Mumbai",72.92514928,19.1101038
Melting Flavours,Delhi NCR,+91 7290802802 +91 7290802803,"Plot 107/3, Near Petals Play School, Sector 142, Near Sector 132, Noida",77.41481781,28.50407759
Rosenberg,Kolkata,+91 9007904795 +91 8420086355,"P193/1, C.I.T. Road, Scheme 6M, Ultadanga Main Road, Ultadanga, Kolkata",88.39292295,22.5921028
Cherubs,Delhi NCR,+91 7011559437 +91 9205922747,"11A/22, Shop 2, Old Rajinder Nagar New Delhi",77.18311317,28.63823753
Shankar Store,Kolkata,+91 9681401746,"Sukchar Raja Road, Subodh Street, Near Viyavadi, Sodepur, Kolkata",88.37392343,22.70578551
Bake Bite,Delhi NCR,+91 9599249449 +91 9599210548,"Shop D95, Krishna Park, Near Radha Krishna Mandir, Devli Road, Khanpur, New Delhi",77.23215736,28.50769506
Shiv Shakti Restaurant,Delhi NCR,+91 9968473939,"11, DDA Market, Pocket 4, Mayur Vihar Phase 1, New Delhi",77.29327887,28.60347001
Tawa Wok,Delhi NCR,0124 4989267,"Tatvam Villas, Dhani, Sector 48, Near Sector 50, Gurgaon",77.0394668,28.40641547
Coney's - Pizza Cones & More,Mumbai,+91 8928787770 +91 8928541298,"Shop 5, Dipti Blossom, Shubjivan Circle, Holy Cross Road, IC Colony, Borivali West, Mumbai",72.8483868,19.25077403
Sailors' Cafe,Mumbai,+91 9137686834,"Shop 9, Belle Vista Building, Near D.Y. Patil University, CBD-Belapur, Navi Mumbai",73.03376902,19.00700134
Spice & Tandoor,Delhi NCR,+91 8588877513,"MSX Tower 1, Alfa Commercial Belt, Alpha 1, Greater Noida",77.51512036,28.4734031
Biryaniya,Delhi NCR,+91 9650892300,"Supermart 2, DLF Phase 4, Gurgaon",77.08827663,28.46154465
Mosaic Express- By Crowne Plaza,Delhi NCR,011 44884488 +91 8800696918,"Crowne Plaza, Twin District Centre, Sector 10, Rohini, New Delhi",0,0
Knight Delight Kafe,Delhi NCR,+91 9582449394 0124 4263394,"Sector 4 & 5 Chowk, Station Road, Old Railway Road, Gurgaon",77.0143117,28.48084896
Ridhi Sidhi,Kolkata,+91 9830019482,"Gitanjali Apartment, NP-433 Nayapatti Sector 5, Salt Lake, Kolkata",88.44042521,22.58125581
Kuldeep Food Corner,Delhi NCR,+91 8586863141,"Shop 1, Nimri Colony, Ashok Vihar Phase 3, New Delhi",77.1762403,28.681556
Samla Food,Delhi NCR,+91 9213506484 +91 9599329628,"Shop S18D, Shakarpur School Block, Laxmi Nagar, New Delhi",77.27949299,28.626528
FCF Chaap & Kabab's,Delhi NCR,+91 9999534072 +91 9999534073,"11/92, Near Surya Continental Hotel, Subhash Nagar, New Delhi",77.12019727,28.63777025
Plum By Bent Chair,Delhi NCR,011 61495178,"The Walk, Worldmark 2, Aerocity, New Delhi",77.122704,28.55154
Kittoo's,Delhi NCR,+91 8586888318,"Bani Square Mall, S 33, Sector 50, Gurgaon",77.05731254,28.42544412
WOW Popcorn,Mumbai,022 26054646,"B-1, Gangagiri Premisis C.H.S, Carter Road, Bandra West",72.82305166,19.07081632
Raj Bakers And Confectioners,Delhi NCR,+91 8860224615 +91 8448021133,"D 85, Shop 4, Mini Market, Near Holy Child School, Devki Nandan Marg, Tagore Garden Extension, Tagore Garden, New Delhi",77.11256202,28.65000402
Choutala Food Junction,Delhi NCR,+91 8285398859,"4/126, Lal Bahadur Mini DDA Market, Trilokpuri, New Delhi",77.31212944,28.61275362
Ghosh Sweets,Kolkata,+91 8336969572,"P- 284, CIT Road Scheme 6M, Phool Bagan, Kankurgachi, Kolkata",88.38936266,22.57147173
Hungry Hippo,Kolkata,+91 9836050805,"225, Block B, bedside laketown nursing home Lake Town, Kolkata",88.40553202,22.60144403
Vimal Sweets,Delhi NCR,+91 9999555092,"Y-838, Phase 1, Opposite Government School, Nangloi, New Delhi",77.06915416,28.68362078
Puchkawala,Kolkata,+91 8411930786,"32A Beadon Row, Ward 17, Hatibagan, Kolkata",88.37592445,22.58704593
The Royal Food Junction,Delhi NCR,+91 9319505307,"17, Central Market, Near Old Bus Stand, Ambedkar Road, Ghaziabad",77.43151255,28.6683698
Mojo's Food,Delhi NCR,+91 8800583963,"22/84, West Patel Nagar, New Delhi.",77.16863025,28.65419284
Tohfay Walla,Delhi NCR,+91 9873412259,"Shop 23, Ground Floor, Amrapali Crystal Homes, Shopping Arcade, Amrapali Silicon City, Sector 76, Near Sector 72, Noida",77.3827064,28.57117585
Mayur Restaurant & Bar,Mumbai,022 26490654 022 26495666,"Juhu Road, Near Police Station, Santacruz West, Mumbai",72.83617772,19.08446482
Wat the Waffle,Delhi NCR,+91 8285572423 +91 8750097749,"D-1, Fateh Nagar, Jail Road, New Delhi",77.09746923,28.63396274
Pirates of Punjab,Delhi NCR,011 61495026,"60/14, Ashok Nagar, Near Tilak Nagar Metro Station, Gate 3, Tilak Nagar, New Delhi",77.09825881,28.63648432
Woodz Pizza,Mumbai,+91 8369987332,"Shop 745, Adarsh Nagar, New Link Road, Andheri Lokhandwala, Andheri West, Mumbai",72.83170319,19.14467812
Back To Pavilion Cafe,Delhi NCR,+91 7678113529,"C-10, Guru Ram Das Nagar, Near Balaji Rasoi, Preet Vihar, New Delhi",77.27685336,28.63875749
Cherry Berry,Delhi NCR,+91 9015813860,"House 162, State Bank Colony, Near Nanak Piau Gurudwara, GTK Road, Gujranwala Town, New Delhi",77.18997225,28.69434193
Diggin,Delhi NCR,011 26110787 011 26110788,"10, Santushti Shopping Complex, Race Course Road, Chanakyapuri, New Delhi",77.197924,28.59515645
The Crossings Restaurant,Delhi NCR,+91 9910024162 +91 9910024172,"Golf Course, Opposite SBI Bank, Crossing Republik, Ghaziabad",77.43459206,28.62766543
Eggers Madhouse,Delhi NCR,+91 9899814755,"11, Metropark Food Court, HUDA City Centre Metro Station, Sector 29, Gurgaon",77.0725894,28.45957273
Dogs & Wiches,Delhi NCR,+91 9811148105,"Shop 105, 1st Floor,  Market 2, Chittaranjan Park, New Delhi",77.25314163,28.5368153
The FitBox Co.,Mumbai,+91 9820282813,"10/251, Alankar Building, Sulochana Sethi Marg, Sion West, Mumbai",72.85744395,19.03370139
Chicken App,Delhi NCR,+91 8750270003,"Shop 16, DDA Shopping Complex, Gulabi Bagh, Near Shastri Nagar Metro Station, Inderlok, New Delhi",77.18164064,28.66990038
Kebabs & Curries,Delhi NCR,+91 9899589729,"H160, Begumpur, Malviya Nagar, New Delhi",0,0
Al-Rim,Kolkata,+91 8584995526,"7, Stadium Nagar, Ajoy Nagar, Kolkata",88.40280488,22.49033414
Piyali Restaurant,Kolkata,+91 9836543510 +91 8017774839,"19, Dr. S.P. Mukherjee Road, Near Dum Dum Police Station, Dum Dum, Kolkata",88.41556616,22.63629237
Rasoi,Delhi NCR,+91 7303826251,"682, Street 10, Block A, Mahipalpur, New Delhi",0,0
Mr. King,Delhi NCR,+91 9999030405,"518A, H Block, Govind Puram, Ghaziabad",77.48471618,28.68643058
Online Cake Palace,Delhi NCR,+91 8010863903,,77.3038679,28.58921481
Thali King- Make My Thali,Delhi NCR,011 66992332,"Shop 2, Good Luck Plaza, Sector 20, Dwarka, New Delhi",77.062168,28.567334
Rajubhai Bhurji Wala,Mumbai,+91 9867546247,"Shop 4, Ratna Jyoti Apartments, Off Shimpoli Road, Opposite Gokhale School, Borivali West, Mumbai",72.85058822,19.22357466
Indian Halal Meat Shop,Delhi NCR,Not Available,"Shop 10098, Pul bangash Near Azad
 Market Chowk, New Delhi",77.20765673,28.66416477
New Madras Cafe,Delhi NCR,+91 9999344930,"C-1/177, Yamuna Vihar, Shahdara, New Delhi",77.27927875,28.70029204
Momos Republic,Mumbai,+91 7710869686,"Shop 3, Vesta Building, Lodha Complex, Majiwada, Thane West, Thane",72.98423365,19.21328797
Baleshwar Rasoi,Delhi NCR,+91 8447550669 +91 9650232764,"Ashok Vihar Phase 1, New Delhi",77.16554135,28.68729442
Wafflista Cafe,Delhi NCR,+91 9654709025,"104, J & K Block, Laxmi Nagar, New Delhi",0,0
Rajasthali,Kolkata,,"56/74, NSC Bose Road, Tollygunge, Kolkata",88.35024733,22.4879126
Shree Sai Kulcha Hut,Mumbai,+91 8080344359,"Shop 1, Nebula Darshan, Wayle Nagar Khadakpada, Kalyan, Thane",73.13330982,19.2542498
New Sethi's Restaurant,Delhi NCR,0120 2754011 0120 2862011,"1, Model Town East, Near Opulent Mall, Nehru Nagar, Ghaziabad",77.43735574,28.65312777
Diet Brite,Delhi NCR,+91 9958160960,"Y-18, Naveen, Shahdara, New Delhi",77.28450805,28.67755501
Cafe Meals,Delhi NCR,+91 8860988858 +91 9990216663,"CB-162, Ring Road, Naraina. Flyover, Naraina, New Delhi",77.13592641,28.62328985
Wrap & Roll,Delhi NCR,+91 9650959897,"Shop 7, Ground Floor, B-1/8, Apsara Arcade, Karol Bagh, New Delhi",77.18870021,28.64357115
Lalaji Food Plaza,Kolkata,+91 9163802099 +91 9163842505,"256, GT Road, Liluah, Howrah",88.34699683,22.61594523
Om Sweets & Snacks,Delhi NCR,0124 4271101 0124 4271102,"SCO 17, Main Market, Sector 31, Gurgaon",77.05057986,28.45323374
Hakka Treat,Delhi NCR,+91 7827382981,"5/195, Lalita Park, Laxmi Nagar, New Delhi",77.2722312,28.6298589
M M Fast Food Center,Kolkata,+91 8584072428,"7B, Raja SC Mullick Road, Jadavpur, Kolkata",88.37050539,22.49677022
Desi Chulha,Delhi NCR,+91 9811118815,"A- 151, Jaitpur Extension Part 1, Badarpur Border, Faridabad",0,0
Cheers Resto Bar,Delhi NCR,+91 9718999702 00 97189999703,"G-16-21 RG-1 Complex, Prashant Vihar, Ssector 14, Prashant Vihar, New Delhi",77.13475529,28.71614263
Good Food Xpress & Bakery,Delhi NCR,011 40214545 +91 9990499909,"A-1, 2, 10 NN Towers, Road 44, Plot 23 A, Pitampura, New Delhi",77.13514321,28.68936973
Delicious Treasure,Delhi NCR,+91 8588813096,"E-143 E Block Sector 52, Noida",77.37043664,28.59277165
Thali Junction,Kolkata,+91 8584958500,"4th Floor, 16th Street, Block-AL, New Town, Kolkata",88.45114835,22.57555832
Special Muradabadi Chicken Biryani,Delhi NCR,+91 7409622388,"17, Opposite Dlf Tower B, Jasola, New Delhi",77.2872507,28.5390775
Kitchen Lab,Delhi NCR,+91 7303421048 +91 9910354783,"13E/20, 1st Floor, Vasundhara Hatt Complex, Sector 13, Vasundhara, Ghaziabad",0,0
Rani's Bakery,Mumbai,022 28443446 +91 9820890255,"1, Sai Amar Building, Evershine Nagar, Behind Jharna Hotel, Off Link Road, Malad West, Mumbai",72.83328496,19.19282286
The Kitchen Exotica,Delhi NCR,+91 8010132132 +91 7827132132,"Near Sarita Vihar Police Station, Opposite Apollo Hospital, Main Mathura Road, Jasola, New Delhi",77.2818655,28.5398965
Choco Smith Gourmet Bakery,Delhi NCR,011 29254973 011 29254974,"Shop 13-15, Local Shopping Complex, Press Enclave Road, Sheikh Sarai 2, New Delhi",77.23111097,28.53379265
Café Bogchi,Delhi NCR,+91 9818171953 0129 4055773,"SCF 39, First Floor, Above Axis Bank, Sector 15, Faridabad",77.32380476,28.3951792
Song Dong Momos & Kathi Roll,Delhi NCR,+91 9999595213,"SLF Mall, Sector 31, Faridabad",77.31544264,28.45486708
Vardaan Food Corner,Delhi NCR,+91 9837843928,"U-71, 52, Sector 24, DLF Phase 3, Gurgaon",77.0923575,28.4898921
Chaska Point,Delhi NCR,+91 9315841436,"DA-3, Metro Pillar 53, Main Vikas Marg, Shakarpur, New Delhi",77.283784,28.634655
CHD Chache Di Hatti,Delhi NCR,+91 9582157112 +91 9818219808,"PVR Complex, Vasant Vihar, New Delhi",77.16378853,28.55873412
Fabelle Chocolate Boutique - ITC Maurya,Delhi NCR,011 66325360,"ITC Maurya, Chanakyapuri, New Delhi",77.17323359,28.59791152
The Subtle Baker,Kolkata,+91 9163758881,"20, Bijoy Kumar Mukherjee Road, Babudanga, Dobson Road, Howrah",88.34320117,22.59391024
Frozen Fantasy,Delhi NCR,+91 7290007783 +91 7290007785,"Safdarjung, New Delhi",77.19390001,28.56149839
Thooso,Mumbai,+91 9136091013 +91 9136091014,"2nd Floor, Chapmak Studio, Beside Yash Raj Studio, In Fun Republic Lane, Andheri Lokhandwala, Andheri West, Mumbai",72.83465356,19.13561686
Snickerdoodle-Virgin Bar & Cafe,Mumbai,+91 9860032615 +91 9890361591,"3, Kher Section, Swami Samarth Chowk, Opposite Punjab National Bank, Ulhasnagar, Ambernath, Mumbai",73.18302926,19.20503745
Rollick,Kolkata,+91 9830110245,"1A, Russel Street, Park Street Area, Kolkata",88.35128333,22.55390918
Naturals Ice Cream,Delhi NCR,011 43785502 +91 8368436163,"L-8, L Block, Outer Circle Connaught Place, New Delhi",77.22203135,28.63446211
Ghar Jaisa Khana,Delhi NCR,+91 9599094989 +91 9210940969,"2/2, Baberpur, Prem Gali, Shahdara, New Delhi",77.28211049,28.68520555
Raja Sweets,Kolkata,+91 9088695880,"B 16/9, ITI More, Ghoshpara Road, Nadia, Kalyani, Kolkata",88.438191,22.980279
Bake-Days,Delhi NCR,011 28525225 +91 7529944243,"WZ-1234, Arya Samaj Road, Near Friends Cable Network, Nagal Raya, Janakpuri, New Delhi",77.10927129,28.60714499
Kerala Cafe,Delhi NCR,+91 9650696710 011 22755150,"Shop 4 & 5, 1st Floor, Block A/18, Acharya Niketan, Mayur Vihar Phase 1, New Delhi",77.29465887,28.60705492
Dana Pani Foods,Delhi NCR,+91 9711885550,"H 79 Sector 63, Noida",77.3826144,28.6266412
Dil Chinese Fast Food,Delhi NCR,+91 8448668249,"Near KSM Public School, Ghitorni Main Market, MG Road, New Delhi",77.14409072,28.49427993
Richie's Cafe,Delhi NCR,+91 9958007086 +91 8958829911,"Chaprana Complex, Near Paras Apartment, Sector 31, Faridabad",77.31698256,28.44822801
Sunil Bakery,Delhi NCR,+91 9717334689 +91 9643558924,"203A, Near Power House, Basant Gaon, Vasant Vihar, New Delhi",77.1586987,28.57329261
Techies Time to Tea,Delhi NCR,+91 8377868668 0120 4547982,"C-98/27, 2nd Floor, Jain Road, Sector 41, Noida",77.36215699,28.5691521
Chop Shop Chicken Shop,Delhi NCR,+91 8377078027 +91 9999712779,"Shop 54, Opposite TCS Maruti Showroom, Main Neelam Chowk, NIT, Faridabad",77.30648004,28.39222092
Shreya Restaurant & Bar,Mumbai,022 25807366 022 25828194,"1, Lasambi Sadan, Road 27, Shanti Nagar, Wagle Estate, Thane West, Thane",72.94464994,19.19281843
S P Food Corner,Delhi NCR,+91 8750662550,"2122/58, Naiwala Opposite Talwar Jewellers, Near Bank Street, Karol Bagh, New Delhi",77.19551805,28.65003138
Asad's Cafe,Mumbai,00 919920772736 00 919920769659,"Shop  A/1, Ostwal Paradise , BLDG 3, CHS Ltd., NH School, Near Shivar Garden, Mira Road, Mumbai",72.86489848,19.28810849
Zaika Muradabadi Chicken Restaurant,Delhi NCR,+91 7838619065 +91 7838618619,"K-47-B, Central Market Road, Lajpat Nagar 2, New Delhi",77.24439561,28.56870718
Big Boss Chikan Corner,Delhi NCR,+91 7015060943 +91 8750932696,"Shop 1/5, Jeevan Nagar, Part 2, Near Apna Ghar, Faridabad",77.29672149,28.36274249
Burger Box,Delhi NCR,+91 9999450505,"5A, Main Market, Madanpur Khadar, Sarita Vihar, New Delhi",77.29771759,28.53289308
The Ramkrishna Sweets,Kolkata,+91 9830387881,"1/6 A, Mahajati Nagar, Block 1, Dum Dum, Kolkata",88.43460616,22.64717834
Bedouin - Sher e Bengal,Kolkata,033 40603009 +91 9836515261,"200/2B, Gariahat Road, Gariahat, Kolkata",88.36285539,22.51914871
The Big Chill Cafe,Delhi NCR,0124 2806500 011 46556828,"3rd Floor, Ardee Mall, Block B, Ardee City, Gurgaon",77.079457,28.441444
Saini Foods,Delhi NCR,0124 2224933 +91 9999024933,"Shop 7, Part 1, Sector 15, Gurgaon",77.04058494,28.45293336
Aavakay,Mumbai,+91 8957575708,"Gayatri Satsang Building, Behind Vishnu Shivam Mall, Thakur Village, Kandivali East, Mumbai",72.87127778,19.21228877
Apni Rasoi,Delhi NCR,+91 7827244241 +91 7503998239,"Plot 2, Shyam Enclave, Main Goyla Road, Deen Pur, Najafgarh, New Delhi",76.99697457,28.59104358
Calcutta Chiit Chaat,Kolkata,+91 7980506976 +91 9748807249,"R.A. 308, Nabapally, Sector 4, Salt Lake",88.41293458,22.55739592
Madan Sweets & Bakers,Delhi NCR,+91 8588956676,"8/1, Subhash Nagar, New Delhi",77.11824227,28.63607205
Choudhary  Food Station,Delhi NCR,+91 9015358052,"Shop 226, Bhoor Bharat Nagar, Kavi Nagar, Ghaziabad",0,0
King Of Food,Delhi NCR,Not Available,"Plot 275, Shop 2, Sector 4, Opposite Ramprastha Green Gate 1, Vaishali, Ghaziabad",0,0
Awadhi Biryani,Delhi NCR,+91 8826595468,"G 125, RG Complex, Prashant Vihar, Sector 14, Rohini, New Delhi",77.1328953,28.7157753
Guddu Ji Malai Chaap Wale,Delhi NCR,+91 9818370117,"42, Shri Ram Vihar, Near Carte Chowk, Shastri Nagar, Ghaziabad",77.466687,28.671665
La Taj,Delhi NCR,+91 8800094355,"151/137, Huda Commercial Complex, Near Main Mathura Road, Sector 37, Faridabad",77.31056303,28.4803683
Tulsa Hotel,Mumbai,Not Available,"Near Gove Toll Naka, Kalyan Bhiwandi Road, Kalyan, Mumbai",73.099023,19.251674
BurgerFi Cafe,Delhi NCR,+91 9717735373,"A 32, Opposite IBM Noida, Sector 62, Noida",77.35802002,28.62796207
Grillz Fries & More,Delhi NCR,00 1125407669 +91 9773889496,"58/1, Ashok Nagar, Subhash Nagar, New Delhi",77.09968876,28.63728854
Hometaste,Delhi NCR,+91 9711131749 +91 7042148106,"120, Huda Plot, Sector 56, Gurgaon",77.09257454,28.42696586
Amor Churros,Mumbai,+91 9653185951,"Shop 1, Gagangiri Society, Panch Pakhadi, Thane West, Thane",72.96753287,19.19298561
The Zaika King,Delhi NCR,00 09211378977 00 09654717072,"Shop X-1 A, 17, Behind Metro Hospital, Sector 12, Noida",77.338228,28.5971488
Only For Foodies,Kolkata,+91 9007882828,"519/D, G T Road, Mahesh, Serampore, Kolkata",88.35038949,22.74242406
Cumin,Kolkata,+91 8240568807,"Baguiati Chawal Patty, Prassad Ray Smriti Market, Bidhannagar, Rajarhat Municipal Corporation, Baguihati, Kolkata",88.42575755,22.61057632
West India Co. Bar & Kitchen,Mumbai,+91 7506677499 +91 9769674447,"Shop 12/13, The Walk, Behind Westside, Ventana Building, Hiranandani Estate, Thane West, Thane",72.98350275,19.25526679
Flavours of London,Delhi NCR,+91 9268776774 +91 7210898925,"Plot 25, Fauji Market, Amberai Village, Sector 19, Dwarka",77.0468329,28.5771009
Shri Murli Wala,Delhi NCR,+91 8076339911 +91 7838126666,"B-5, Patel Garden, Near Metro Pillar 787, Dwarka Mor, Uttam Nagar, New Delhi",77.03082137,28.618872
Dragonfly Experience,Delhi NCR,+91 7303759996 +91 7303759995,"Worldmark 1, Aerocity, New Delhi",77.12299,28.55059
The Foodiez,Kolkata,+91 7003477719,"3H/5, Ibrahim Road, Kidderpore, Kolkata",88.3249303,22.53527353
Arhaan Chicken Corner,Delhi NCR,+91 8920846400 +91 9953291442,"Shop 52, Tawar Market, Rajpur Khurd Colony, Near Chhatarpur Metro Station, Chhatarpur, New Delhi",77.17663161,28.50738658
The Mad Teapot/The Wishing Chair,Delhi NCR,011 46572121,"86-A, Shahpur Jat, New Delhi",77.21436225,28.54925019
Bakers Reflection,Delhi NCR,+91 7042711094,"Royal Park, Sector 137, Near Sector 135, Noida",77.4132752,28.50516567
Jai Jagannath Payal Dhaba,Delhi NCR,+91 9560430064,"Gali 6, K Block, Opposite Friday Market, Main Vasant Kunj Road, Mahipalpur, New Delhi",77.1279807,28.5449918
Binge Bakery And More,Delhi NCR,0124 4278385 +91 9205623170,"C28, Ground Floor, Nirvana Courtyard, Nirvana Country, Sector 50, Gurgaon",77.06539907,28.41427534
Food Express,Delhi NCR,+91 9716131940,"Shop 1, Plot 19, Gulabh Bagh, Uttam Nagar, New Delhi",77.0446267,28.61981085
Punjabi Rasoi,Delhi NCR,+91 9136195362,"R 1, Near Metro Pillar 690, Uttam Nagar, New Delhi",0,0
Mumma's Kitchen,Mumbai,+91 9969084242 022 28908648,"Shop 2, Prabhu Industrail Estate, Next to Corporation Bank, I.C. Colony, Borivali West, Mumbai",72.85021406,19.24551007
Balli Machi Wala,Delhi NCR,+91 9990782030,"Shop 3 A, J-block, DDA Market, Ashok Vihar Phase 1, New Delhi",77.17283696,28.68696354
Baweja's Pizza Xpress,Delhi NCR,+91 9990059393 +91 8745041417,"3A/WH/76, Near Dav College, NIT, Faridabad",77.29359336,28.39792887
Shahi Dahi Bhalle,Delhi NCR,+91 9643212573 +91 9868090939,"BA/149-B, Near Sandoz Opposite DDA Market, Jail Road, Delhi",77.09818237,28.63164267
Aunty Momo,Delhi NCR,+91 8527788210,"C-16, Corner Shop, Near Allahabad Bank, Amar Colony, New Delhi",77.24487908,28.5622705
CLA,Mumbai,+91 7715995656 +91 7715995757,"Shop 12, Jaikarwadi, Opposite Wadala Bridge, Wadala East, Wadala, Mumbai",72.86383398,19.01849619
Republic Of Chicken,Kolkata,18605001033,"Rosedale Plaza Complex, AA III, New Town, Kolkata",88.49080514,22.56159284
Girdharilal Sweets & Namkeen,Delhi NCR,+91 9716004195,"Shop 1, Gate 2, Numbardar Market Village Bharolpur, Sector 65, Noida",0,0
Nueva,Delhi NCR,011 26168382 +91 9811758382,"Ground Floor, Sangam Courtyard, R K Puram, New Delhi",77.17351824,28.57256681
Maa Tara Food Zone,Kolkata,+91 8240511615,"F8, Kharia Bhawan, Baguihati, Kolkata",88.42732698,22.61047945
Khalifa,Delhi NCR,+91 9811962992,"House 16-17, Ground Floor, Satyaniketan, New Delhi",77.16704171,28.58763153
Dolphin Restaurant,Kolkata,+91 9051317551,"43, KNC Road, Near Barasat Thana, Barasat, Kolkata",88.48102178,22.71927192
Food Plaza,Delhi NCR,+91 9818582576 +91 8287886848,"SF-196, Shastri Nagar, Near Chiranjeev Vihar Gate, Shastri Nagar, Ghaziabad",77.47485269,28.67346772
Firdous,Delhi NCR,+91 8810472702,"G-61, Masjid Moth, Greater Kailash 2 (GK 2), New Delhi",77.24389639,28.53335229
Ayyappan's - The South Indian Bistro,Mumbai,+91 9833048505,"Shop 10 Hari Plaza, Therwani Heritage, Sector 7, Kharghar, Navi Mumbai",73.0653704,19.0345724
The Aroma of Bengal,Delhi NCR,+91 9650645699 01 244240893,"Shop 177, 1st Floor, Sapphire 83, Sector 83, Gurgaon",76.967618,28.393393
Sam's Bakery,Delhi NCR,+91 9650261753 +91 9650261754,"Shop 100, Opposite AVN School, Sector 19, Faridabad",77.31453236,28.42311681
FFC Restaurant,Delhi NCR,+91 9213727842,"2581, Shanker Street, Asaf Ali Road, New Delhi",77.2301201,28.6445589
Curry Pot,Delhi NCR,+91 9871734500,"C-91, RDC, Raj Nagar, Ghaziabad",77.44351644,28.67710261
Chickenation,Delhi NCR,+91 9643323323,"CSC 8, DDA Market, Opposite Remal Public School, 2nd Floor, Sector 3, Rohini, New Delhi",77.10569657,28.69961476
Bistro N Beans,Delhi NCR,+91 9318370476,"B-357 A, Near East End Apartments, New Ashok Nagar, Vasundhara Enclave, New Delhi",77.30442345,28.58933521
Shradda,Mumbai,022 25404205 022 25423359,"Manisha Nagar, Gate 2, Mumbai Pune Road, Kalwa West, Kalwa, Mumbai",72.99230106,19.1975344
Picket Lane,Delhi NCR,0124 4037873,"R2 002, M3M Cosmopolitan Mall, Golf Course Extension Road, Sector 66, Sohna Road, Gurgaon",77.05993406,28.40193897
Sunny Kebab Wala,Delhi NCR,+91 9899557008,"Shop 94, Block J, Beri Wala Bagh, Near Sarvodya Bal Vidyalaya, Subhash Nagar, New Delhi",77.11369358,28.63412017
Refresh Katta,Mumbai,+91 8976579078,"Shop 6, Dipali Kunj CHS, Nehru Road, Opposite Municipality Garden, Dombivli East, Dombivli",73.09049942,19.22039773
Burmese Bahar,Kolkata,00 983074903,"Pioneer Park, Helabattala, Barasat, Barasat, Kolkata",88.47875968,22.72392623
Chinese Garage,Delhi NCR,+91 8376800777 +91 7042722442,"East of Kailash, New Delhi",77.2456073,28.55816577
Sardar Kachori,Delhi NCR,+91 9650757202,"B 1619, Near Shastri Nagar Metro Station, Inderlok, New Delhi",77.180415,28.678641
Hungryy Birdz,Kolkata,+91 7076444476 +91 9830304747,"7/1, Srijoni Road, Opposite Thakurpukur Cancer Hospital, Thakur Pukur, Kolkata",88.31783015,22.45912716
Patiala Shahi Chicken & Fish Fry,Delhi NCR,+91 8512895649 +91 9910439241,"Gate 6, Opposite DDA Market, Paschim Vihar, New Delhi",77.08289009,28.65922408
Cake Paradise,Kolkata,Not Available,"G4, BA 14/8, Shibalay Apartment, Near Sports Council Club, Baguihati, Kolkata",88.42483755,22.61350175
Smart Cafe,Delhi NCR,+91 8287688777 +91 9911597067,"KO 17, Near ACS Group, Amity College Gate 2, Sector 126, Near Sector 125, Noida",0,0
Burger King,Delhi NCR,011 41403240,"2nd Floor, Select Citywalk Mall, Saket, New Delhi",77.21928477,28.52912124
The Great Bowl Of China,Delhi NCR,+91 7290070800,,77.37647295,28.51391382
Tulsi,Mumbai,+91 9820420375,"34A, Raj Arcade, Opposite D Mart, Mahavir Nagar, Kandivali West, Mumbai",72.84167022,19.21310751
Anjana Cafe,Delhi NCR,+91 7011819036,"1022, Maruti Vihar, Chakkarpur, MG Road, Gurgaon",77.08265975,28.47626716
Delivery Panda,Delhi NCR,+91 9953991099,"13, Gate Police Station, Block C, Vijay Nagar, New Delhi",77.20108867,28.69162234
Munna Di Vaishno Rasoi,Delhi NCR,+91 9911154556 +91 9810868569,"B-781, Sir Chotu Ram Marg, Avantika, Sector 1, Rohini, New Delhi",77.09874529,28.70289407
Roll X,Delhi NCR,+91 9958622709,"Shop 58, Mini Central Market, DDA Flats, Kalkaji, New Delhi",77.25693762,28.53069009
Sindhudurg,Mumbai,022 25832970 022 25829952,"Krishna Sadan, Mulund Check Naka, Wagle Estate, Thane West",72.95524433,19.18695002
Lucky's Bakery and Patisserie,Delhi NCR,+91 7503347103 01 142071051,"2/80, Club Road, West Punjabi Bagh, Punjabi Bagh, New Delhi",77.12715961,28.66587163
Dosae,Delhi NCR,+91 9205109685,"1411B/13, Baba Fateh Singh Marg, Kalkaji, New Delhi",77.2658154,28.53188099
Pizzeria Cafe,Delhi NCR,+91 9625018028 +91 8285280476,"Shop SC-160, Jaipuri Sunrise Plaza, Doctor Sushila Naiyar Marg, Ahinsa Khand 1, Indirapuram, Ghaziabad",77.37704694,28.63976944
Chawla Chick Inn,Delhi NCR,+91 8744900010 +91 8744900011,"Near Corporation Bank, Sector 1 Market, Manesar, Gurgaon",76.94717903,28.36684332
Cake Point,Delhi NCR,011 65422732 +91 9871741906,"WZ 26, Vashishth Park, Pankha Road, Janakpuri, New Delhi",77.10240785,28.60843658
Pizza Boys,Mumbai,022 68493490,"Shanti Sadan, Walabhdas Compund, Opp. Ganga Niwas, Next to Lakozy Toyota Showroom, Off Chicholi Bunder Road, Malad West, Mumbai",72.83598326,19.1811118
Ajooba Biryani Junction,Kolkata,+91 9051361085,"Shop 27 & 28, Near Peerless Hospital, Pancha Sayar, Garia, Kolkata",88.3927295,22.48358674
Snack Shack,Kolkata,+91 9830678655 +91 9903994234,"54, NSC Bose Road, Mahamaya Apartment, Besides Spencers, Narendra Pur, Kolkata",88.38679673,22.45464826
Prem Rasoi,Delhi NCR,+91 7042948034 +91 9971147024,"E - 197 A, LIG Flates, GTB Enclave, Dilshad Garden, New Delhi",77.30953876,28.68797325
Coastal Reef,Delhi NCR,00 1244119757 +91 9810149757,"SF 91, Near Airtel, DLF Galleria, DLF Phase 4, Gurgaon",77.08169717,28.46760756
The Biryani Darbar,Kolkata,+91 7908144616,"Gate 2, Shahpoorji Complex, New Town, Kolkata",88.514078,22.565736
Saravana Mess,Delhi NCR,+91 7292071185 +91 7292071186,"15A/9, WEA Karol Bagh, Karol Bagh, New Delhi",77.18825296,28.64541016
A1 Food Service,Delhi NCR,+91 8510852057,"Old Palam Road, Near MBD School, Sector 15, Dwarka, New Delhi",77.03122504,28.61091492
McDonald's,Delhi NCR,011 66000666,"P-16, Atta Market, Sector 18, Noida",77.3246178,28.56931022
Rajubhai Dhoklawala,Mumbai,+91 9821356977 +91 9773355199,"9, Om Sai Ratna Rajul Building, Mahatma Gandhi Road, Kandivali West, Mumbai",72.84323461,19.20554372
Duggal's Rasoi,Delhi NCR,+91 9910274274 +91 9910273273,"125, Flyover Market, Defence Colony, New Delhi",77.23885585,28.57814578
Sugar & Spice,Delhi NCR,+91 9660466686,"Ground Floor, Basant Lok, Priya Cinema Complex, Vasant Vihar, New Delhi",77.16374628,28.55730676
Delish,Delhi NCR,+91 8800560500 +91 8851766605,"B-6/1, Double Storey, Opposite Metro Pillar 371, Ramesh Nagar, Moti Nagar, New Delhi",77.14155436,28.66474108
Cherry Bar - The Leela Ambience Convention Hotel,Delhi NCR,011 71721234 +91 8130990916,"The Leela Ambience Convention Hotel, Maharaja Surajmal Road, Near Yamuna Sports Complex, Vivek Vihar, New Delhi",77.30278395,28.66165092
Sindhi Meat & Chicken,Delhi NCR,+91 9540535500 +91 9540532200,"Shop 3, DDA Market, Sector 22, Dwarka, New Delhi",77.06000519,28.56116867
Urban Cuisine,Delhi NCR,+91 9718269111,"Shop 2, Tigaon Road, Near Sai Dham Mandir, Sector 86, Faridabad",77.34101247,28.40795192
Jhama Silver Sweets,Mumbai,022 27548621,"4, Ajanta Building, Sector 15, Kopar Khairane, Navi Mumbai",73.00553307,19.09956925
Khana Khazana,Delhi NCR,+91 8377855274,"398/11, Near Colony Market, Opposite Bata, Old Railway Road, Gurgaon",77.01748241,28.46731577
Southy,Delhi NCR,+91 9312011011,"Super Mart 2, Kasera 505-506, Sector 43, DLF Phase 4, Gurgaon",77.08860587,28.46099758
TLC Kitchen,Delhi NCR,+91 8587870611,"9-A, Qutub Vihar, Jhankar Road, Block G, Goyla Village, Sector 19, Dwarka, New Delhi",77.025086,28.576386
Lucknow,Kolkata,+91 9748709693,"223/B, Dum Dum, Kolkata",88.40774886,22.62208515
Nimtho,Delhi NCR,011 49093620,"1st Floor, R Block, Pamposh Enclave, Greater Kailash (GK) 1, New Delhi",77.24431012,28.54723102
The Cone Factory,Mumbai,+91 8369476552 +91 7777039582,"Ground Floor, Jatia Chambers 60, Dr V.B. Gandhi Marg, Kala Ghoda, Fort, Mumbai",72.83264358,18.92826554
The Artistic Desserts,Kolkata,+91 9748791032,"EA 10/10, Desh Bandhu Nagar, Baguihati, Kolkata",88.42336066,22.61281744
Cocoaaahhh,Delhi NCR,+91 9899787433,"N 241, Greater Kailash (GK) 1, New Delhi",77.23276723,28.55659528
The Ahare Bahare Kitchen,Kolkata,+91 9674983507 +91 8276818781,"13/B,Biren Roy Road(West). Near Barisha Yubok Brindo Club, Behala Chowrasta.",88.312082,22.485758
Chawla Express,Delhi NCR,011 27654750,"1341, Near Batra Cinema Hall, Mukherjee Nagar, New Delhi",77.21559608,28.71251885
Raju Grill,Delhi NCR,+91 8173954785 +91 8840013708,"Main Market, Sector 11, Faridabad",77.31844068,28.37193136
Dear Donna,Delhi NCR,+91 9139646464,"Ground Floor, Qutub Hotel, A Block, Shaheed Jeet Singh Marg, Block C, Qutab Institutional Area, New Delhi",77.18871698,28.53848358
Greasy Spoon Cafe,Delhi NCR,+91 8826933247,"LG 49, The Next Door Mall, BPTP, Sector 76, Near Sector 81, Faridabad",0,0
Yo Munching,Delhi NCR,+91 9873152913,"Near Gabba Kothi, New Colony, Circular Road, Sector 7, Gurgaon",77.01404985,28.46852654
Amritsari Express,Delhi NCR,+91 8287509838,"Shop A11, Sector 52, Near Sector 53, Gurgaon",0,0
Chutney D'Lite,Delhi NCR,+91 9717485388 +91 8800662866,"23/1, Community Center, PVR Anupam Complex, Saket, New Delhi",77.20683094,28.52331167
Nanuji- By Nanumal Bhojraj,Mumbai,022 61736004,"7&8, Plot D2M, Landmark CHS Limited, Prime Mall Lane, Sector 12, Kharghar, Navi Mumbai",73.064282,19.040446
Yam Food Point,Delhi NCR,+91 9958647110 +91 9971087047,"Shop 62, Ground Floor, New Railway Road, Bhim Nagar, Sector 4, Gurgaon",77.02240091,28.47054781
The Burger Week,Delhi NCR,Not Available,"B-356, Hari Nagar Clock Tower, Mayapuri Phase 1, New Delhi",77.11574379,28.62585848
Shahenshah,Delhi NCR,+91 8076597771 +91 8700756520,"Shop no.1, 1st floor opposite pillar no 226, Hoshiarpur market Sec 51",77.36814804,28.58335909
Orange And Chilli Biryani,Mumbai,+91 9833388804,"Shop 48, Shell Colony Road, Opposite Padma Palace, Chembur, Mumbai",72.89622501,19.06401098
Dear Chocolate,Delhi NCR,+91 9599474449,"Plot 1, Vinoba Puri, Lajpat Nagar 2, New Delhi",77.24849705,28.56657413
Wakhra Swag By Mafia Kitchen,Delhi NCR,+91 8588960417 +91 8588960917,"Hotel P.K. Residency, B 2, Sector 27, Noida",77.33160287,28.57391312
Ghare Baire,Kolkata,+91 9748272939 033 32628326,"204, Harish Mukherjee Road, Near Sangam Beauty Parlour, Hazra, Kolkata",88.34392671,22.52378564
TIME PASS,Kolkata,+91 9748608847,"Shop 12, H.C Dutta Road Sodepur, Khardah, Kolkata",88.38251766,22.7024616
Night Out cafe,Delhi NCR,+91 9999923912 +91 9318939895,"5/25/2/2, Ground Floor, Village Sahipur, Behind Krishna Apartments, Shalimar Bagh, New Delhi",77.1602802,28.7146615
Damru Paan Shop,Mumbai,+91 9869324888,"Shop 1, Dama Villa, Near Kora Kendra Ground, Borivali West, Mumbai",72.84775078,19.22050632
Gujrati Basa,Kolkata,00 08420134998,"1, Rupchand Roy Street, Bara Bazar, Kolkata",88.35553698,22.57918445
Punjabi Rasoi,Delhi NCR,+91 7042327916,"7/24 U Block, DLF Phase 3, Gurgaon",77.09489297,28.49166094
Om Bakers,Delhi NCR,+91 9582507869,"Shop 3, C Block, Main Market, Near Police Booth, Jahangirpuri, Azadpur, New Delhi",77.16712654,28.72998574
Cafe Youth,Delhi NCR,+91 9711221953 +91 9711988487,"Main Road, Near BSES Office, Vasundhara Enclave, New Delhi",77.31232356,28.59778553
Hotel White Castle,Delhi NCR,+91 9773581122,"Goyal Colony, Dadri Main Road, Near Bhangel Police Chowki, Sector 82, Near Sector 93, Noida",77.38572791,28.54299317
Modi Bakery,Delhi NCR,+91 9899420199,"42, Central Road, Bhogal, Jangpura Extension, Jangpura, New Delhi",77.24826034,28.58240312
Manjeet Chicken Centre,Delhi NCR,011 27655158 +91 9213451564,"GF-1, A-12/13, Ansal Building, Commercial Complex, Near Batra Cinema, Mukherjee Nagar, New Delhi",77.21626762,28.71177485
New Airport Restaurant,Mumbai,022 29255552 022 29255553,"Noori Baugh, Opposite Star Chemical, Below Airport Metro Station, Andheri Kurla Road, Marol Naka, Marol, Mumbai",72.87550595,19.10972332
Cafe Rendezvous,Delhi NCR,+91 9871466855 +91 9910011044,"T-540, The Panchshila Rendezvous, Panchshila Park, Malviya Nagar, New Delhi",77.21306708,28.53956895
The Burger Homes,Delhi NCR,+91 9899527184,"House 377, Sector 31, Gurgaon",77.048966,28.456182
My Bar Headquarters,Delhi NCR,011 43583313 +91 7838271741,"Shop N 49, 2nd Floor, Connaught Place, New Delhi",77.21967202,28.63053913
Karan Momos Corner,Mumbai,+91 7219004407,"Shiv Mandir Road, Near Mayflower Garden, Shiv Ganga Chowk, Ulhasnagar, Thane",73.18019215,19.20224581
Juice Bar,Delhi NCR,+91 8527838241,"Jain Nagar, 40 Feet Road, Opposite Bliss Fitness, Sector 37, Rohini, New Delhi",77.05464743,28.72964558
Oye Hotdogs,Delhi NCR,+91 9560770750,"K-14-A, Kalkaji, New Delhi",77.25536987,28.52838571
Tasty Place,Delhi NCR,+91 8700884160 +91 9818846172,"S-9, Budh Bazaar Road, Mohan Garden, Uttam Nagar, New Delhi",77.03203876,28.63342657
Zoe,Delhi NCR,+91 9205534967,"3436, Sector 23, Gurgaon",77.09081467,28.49671676
Heart Bites,Kolkata,+91 8420420553,"A/69, Baghajatin Colony, Ashirbad Market, Baghajatin, Kolkata",88.371433,22.485325
Candle Heart Restaurant,Delhi NCR,+91 8510005105,"89, Shivpuri Main, Vijay Nagar, Thana Road, Pratap Vihar, Ghaziabad",77.42176741,28.64121393
Teens Cafe Fast Food,Delhi NCR,Not Available,"G-19, Plot 10, Local Shopping Complex, Preet Vihar, New Delhi",77.29603484,28.64275432
O Zone Restaurant & Bar,Kolkata,033 32562637,"Meridian Mall, 1st Floor, 2/4, Raghunathpur, V.I.P. Road, Baguihati, Kolkata",88.43130335,22.61705105
Sesame Street Wok Dis Way,Delhi NCR,+91 9837178627,"Near Ims College, National Highway 24, Adhyaatmik Nagar, Shastri Nagar, Ghaziabad",0,0
Tingly Vingly,Mumbai,+91 9773435235 +91 7743999888,"7/10, Bara Chawl, Sitaram Jadhav Marg, Lower Parel, Mumbai",72.82739047,18.99636197
The Royal Spice,Kolkata,+91 9062937537 +91 9062725181,"21 BT Road, 4th Floor, Sodepur, Kolkata",88.37451596,22.70334527
Park Balluchi,Delhi NCR,0120 4959775 +91 9205780775,"CS 5 & 5A, Prateek Walk, Near Prateek Wisteria, Sector 77, Near Sector 72, Noida",77.38940287,28.57120589
Vaishu's Noodles,Delhi NCR,+91 9304085513,"Shop 3, Near Pioneer Park, Sector 62, Near Sector 57, Gurgaon",77.091536,28.410548
Jai Mata Di Fast Food Corner,Delhi NCR,+91 7011790335,"H-51B, New Govindpura, Som Bazar Road, Chander Nagar, New Delhi",0,0
Omelettes A Multi Cuisine Restaurant,Delhi NCR,011 41538802 011 41538302,"34A,64, Rajendra Bhawan, Rachna Cinema Complex, Rajendra Place, New Delhi",77.17753418,28.64334075
Pahalwan Da Dhaba,Delhi NCR,+91 9911171683,"Kabir Bhawan Chowk, Old Railway Road, Gurgaon",77.01923188,28.47122804
Shree Bikaner Sweets,Delhi NCR,+91 9958626989,"144, Taimoor Nagar, New Friends Colony, New Delhi",77.26636559,28.5717568
Lakeside,Mumbai,+91 7719088222 +91 7757881868,"Martin Commercial Complex, Link Arcade, Achole Road, Nalasopara East, Nalasopara, Mumbai",72.82631289,19.40998153
Haldiram's,Delhi NCR,011 47685300 011 47685301,"L-6, Outer Circle, Connaught Place, New Delhi",77.22226739,28.63423523
Noorani Restaurant,Mumbai,022 25494864 022 25356697,"Aafrin Apartment, Bombay Pune Road, Kausa, Mumbra, Thane",73.0248091,19.16905789
Prince Misthaan cafe,Delhi NCR,+91 9599958108 +91 9599958208,"7, Mehrauli Badarpur Road, Opposite RPS Colony, Khanpur, New Delhi",77.2296381,28.51479204
A K Foods,Delhi NCR,+91 8383879337,"Shop G-11, Panchsheel Market, Sain Vihar, Crossings Republik, Ghaziabad",77.4342979,28.6309511
The Tasty Bakers & Confectioners,Delhi NCR,+91 9845739081 +91 9845739041,"Shop 07, Upper Ground Floor, Amarpali Zodiac Market, Sector 120, Near Sector 72, Noida",77.39921138,28.58506549
Classic Snacks,Kolkata,033 23452466,"Old Baguihati Bazar, Baguihati Main Road, Baguihati, Kolkata",88.42753887,22.61046026
Tobasco Kitchen,Delhi NCR,+91 9599332493 +91 9599332483,"U-9/1, DLF Phase 3, Gurgaon",77.09475014,28.49290974
Blossom Food Plaza,Kolkata,+91 9143861106 +91 8420565091,"241/1, G.T. Road, Liluah, Howrah",88.34897764,22.62017007
The Courtyard Cafe,Delhi NCR,+91 9899297999,"Raipur Sabzimandi Market, Near Amity University, Sector 126, Near Sector 125, Noida",77.33398709,28.53932389
Green Pepper,Kolkata,+91 9903757836,"21/A/2, Dewangazi Road, Belur, Howrah",88.34796678,22.6432062
Urban Tandoor,Delhi NCR,+91 9990748999 +91 9818845647,"218, Huda Market, Sector 31, Gurgaon",77.0479253,28.453299
Chobdar Express,Delhi NCR,+91 7400442222,"G 24, LSC 3 Vardhman Star City Mall, Sector 7, Dwarka, New Delhi",77.07192253,28.5836323
Aanya’s Amritsari Nutri Kulcha,Delhi NCR,+91 8368713542,"Sector 56, Near BSNL Office, Huda Market",77.09978331,28.42590852
Standard Ice Cream,Delhi NCR,+91 9818121651,"BL Block, Shalimar Bagh, New Delhi",77.1600089,28.7106808
Foodiejuana,Delhi NCR,+91 9870169001,"Shop 9/58, Gali 12, Tughlakabad Extension, Tughlakabad Institutional Area, New Delhi",0,0
Creamy Nuts,Mumbai,+91 9619497980 +91 9619497954,"Shop 21, Navdurga CHS, Sector 19A, Nerul, Navi Mumbai",73.02489091,19.02996995
Late Lateefe,Delhi NCR,011 65655758,"Preet Vihar, New Delhi",77.28632558,28.63237719
Ishan Fast Food,Delhi NCR,+91 9811523532,"SGL Plaza, DC Chowk Sector -9, Rohini, New Delhi",77.12564483,28.71795537
Baby Got Bacon,Delhi NCR,+91 9910891808,"Sector 51, Noida",77.36275211,28.57810456
Paratha's,Mumbai,022 25797923 022 40262826,"196, Galleria Food Court, Galleria Shopping Centre, Hiranandani Gardens, Powai, Mumbai",72.91174024,19.11957076
New Bismillah Caterers,Mumbai,+91 9167516486 +91 9167524086,"2, Anu Govind Sadan, Opposite DK Tower, Plot E-41, Sector 20, Airoli, Navi Mumbai",72.98989814,19.16130555
Duke of Food,Delhi NCR,+91 9971616863,"D 179, Khirki Village, Malviya Nagar, New Delhi",77.2188174,28.53080673
Kishan Cafe,Kolkata,033 22687339 +91 9830681303,"178, Mahatma Gandhi Road, Bara Bazar, Kolkata",88.35319374,22.58117966
AMA Cafe,Delhi NCR,011 66103668,"House 6, New Colony, Majnu ka Tila, New Delhi",77.22841937,28.70258176
New Delhi Metro Food Plaza,Delhi NCR,+91 9599680206,"Shop 1, Ajmeri Gate, Near New Delhi Metro Station Gate 3, Chawri Bazar, New Delhi",77.22567,28.647875
Peppers & Pipes,Delhi NCR,+91 9999045133 +91 9899976175,"Shop 8, SG Complex, GU Market, Pitampura, New Delhi",77.14524977,28.71473975
Hariram Sweets,Delhi NCR,+91 9773699246,"Khasra 1229, Plot 216, Sant Nagar, Main Burari Chowk, Azadpur, New Delhi",77.19906259,28.7546584
Ashoka Bar & Restaurant,Kolkata,033 22282248 033 66247925,"3B, Chowringhee Road, Near Metro Cinema, New Market Area, Kolkata",88.35160855,22.5646286
New Royal Biryani,Kolkata,+91 9088486228 +91 9062808418,"153/2, Ray Bahadur Road, Behala, Kolkata",88.32707774,22.49981669
Woods Cafe,Delhi NCR,+91 9971510554,"Indira Priyadarshani Park, Arthla, Mohan Nagar, Ghaziabad",77.38829244,28.67707613
Just Coffee & More,Delhi NCR,+91 8586030189 +91 9953079205,"G 12, Ground Floor, Pratap Complex, Munirka, New Delhi",77.17391487,28.55614677
Hot Spot Pizza,Delhi NCR,+91 9582825546 +91 7532918130,"G 16, HIG, Sector 23, Sanjay Nagar, Opposite Nitra Campus, Raj Nagar, Ghaziabad",77.45456614,28.69055207
Chacha Chaudhary Junction,Delhi NCR,+91 9650856842,"154, Pocket 12, Sector 24, Rohini, New Delhi",77.08981622,28.72975495
Hari Om Bhojanalaya,Delhi NCR,+91 8860889196 +91 9899464616,"H-149, Old Gupta Colony, Opposite Kalyan Vihar, Vijay Nagar, New Delhi",77.19796054,28.69223232
AAPS 3SQUARE,Mumbai,+91 9372912343,"Shop 15, Plot 72, Vishwa Highland, Sector 20, Kamothe, Navi Mumbai",73.097259,19.018932
R.K. Dhaba,Delhi NCR,+91 9205124755,"Arya Nagar, Sector 73, Near Sector 72, Noida",77.38072157,28.59077245
Crunchy Street,Delhi NCR,+91 9818036575 +91 7011244247,"R-80, Rajkunj, Raj Nagar, Ghaziabad",77.450286,28.67627604
Tian - Asian Cuisine Studio - ITC Maurya,Delhi NCR,011 46215152 011 26112233,"ITC Maurya, Chanakyapuri, New Delhi",77.17331171,28.59796716
Khane Khas,Mumbai,022 26006970 022 26054605,"4, Silver Croft Building, Junction Of 16th & 33rd Road, TPS 3, Pali Hill, Bandra West, Mumbai",72.83087298,19.06547341
36 China Town,Delhi NCR,+91 9582226554 +91 9870503863,"Opposite Plot A1/22, Sector 11, Rohini, New Delhi",77.11368553,28.73557015
The Albela's Kitchen,Kolkata,+91 9330908844 +91 9088017956,"Podrah Vivekananda Nagar Colony, Chunabhatti, Andul Road, Howrah",88.29623502,22.56289725
J J Delicacies,Delhi NCR,+91 8586863730,"52/18, Opposite Jyoti Hospital, Jharsa Road, Sector 15, Gurgaon",77.0359521,28.4575256
The Roll Xpress,Delhi NCR,+91 9910871101 +91 9821985771,"494, Ganesh Nagar 2, Near Ambedkar College, Madhuban Road Shakarpur, New Delhi",77.28605,28.62951
Bang Bang Cafe,Delhi NCR,+91 8826376400,"LCB 4, Janak Place, District Center",77.08095755,28.63016686
Sukoon - The Cafe,Delhi NCR,+91 9711296196 +91 9650462100,"2nd Floor, Crown Interiorz Mall, Sector 35, Faridabad, Delhi",77.30744328,28.46931643
1Tablespoon Italian Ice Cream,Mumbai,+91 9820233441 022 24033441,"23 Ram Villa, Road 1A, Opposite Sahakari Bhandar, King Circle, Matunga East, Mumbai",72.85786305,19.02754017
Banter,Delhi NCR,011 66103710,"31- B, Pusa Road, Rajinder Nagar, New Delhi",77.1833152,28.6434865
Duke Bar & Restaurant,Kolkata,033 22219153 033 22345751,"11, Chittaranjan Avenue, Chandni Chowk, Kolkata",88.3538663,22.56666458
Chai Addaa,Kolkata,+91 9062454275,"188/13, Prince Anwar Shah Road, Kolkata",88.35764654,22.50213767
My Tasty Corn,Delhi NCR,Not Available,"Kiosk 1, Ground Floor, Chaudhary Mall, Nehru Nagar, Ghaziabad",77.4356341,28.65477715
Badami Sweet & Restaurant,Delhi NCR,+91 9718983030,"Arihant Garden, Supertech, Greater Noida, Delhi NCR",77.4424218,28.5787588
Lazeez Chicken,Delhi NCR,+91 9821964054,"Shop 2 - A, Best Star Mall, Rohini, New Delhi",77.0852045,28.72852866
Bhookkam,Delhi NCR,+91 8800286663 +91 7908377916,"Plot 6, Opposite Anupam Appartments, IGNOU Road, Sainik Farms, New Delhi",77.20647488,28.51837997
Neel Ki Biryani,Mumbai,022 28516262 022 28516363,"Plot 130, Marol Cooperative Society, M.V Road, Marol, Mumbai",72.8829319,19.1096507
Ganesh Bikanerwala,Delhi NCR,+91 9210320010 0120 2750619,"3rd N-25, Ambedkar Road, Ghaziabad",77.43545305,28.65885192
Hungry Ninja,Delhi NCR,+91 8588913003 +91 9873454454,"Shop E 361, Double Storey, Ramesh Nagar, Near Kirti Nagar, New Delhi",77.13115476,28.64784202
Bhushan Cake Shop,Delhi NCR,+91 9555321222,"C-397, Main Market Road, Bhajanpura, Shahdara, New Delhi",77.26978172,28.70023028
Bengal Sweet Corner,Delhi NCR,+91 9711015065 011 26104228,"AB 13, Community Center, Safdarjung Enclave, Safdarjung, New Delhi",77.19903611,28.56545341
Good Food Innovations LLP,Delhi NCR,+91 9999408820 +91 9871647102,"C-237, Sector 63 Road, C Block, Sector 63, Noida",0,0
Ammeez Kitchen,Mumbai,+91 9820009857,"Blue Monarch A-601, Military Road, Next to Riddhi Siddhi Society, Marol, Mumbai",72.88002513,19.12052269
Shahi Mahal Restaurant,Kolkata,+91 9433938786,"B-15, Garden Road, Kidderpore, Kolkata",88.28765061,22.54852547
South Delhi Chicken Corner,Delhi NCR,+91 9891646319 +91 9958065372,"G-1, Triveni DDA Shopping Complex, Sheikh Sarai Phase 1, New Delhi",77.22272269,28.5364318
Sunny Sweets,Delhi NCR,0124 2352111,"A 6, Qutab Plaza, DLF Phase 1, Gurgaon",77.1018751,28.47151068
J V's Fried Chicken,Delhi NCR,+91 7979844375,"House R-2/44, Pachpan Futta Road, Near Dwarka More Metro Pillar 786, Dwarka More. New Delhi-110059, Near Ma Rani Rasoi.",77.03065004,28.62010987
Barbeque Nation,Delhi NCR,011 64806060,"2nd Floor, Munshilal Building, Block N, Outer Circle, Connaught Place, New Delhi",77.22078446,28.63032577
I.H.O.B - Indian House of Biryani,Delhi NCR,+91 9811611684 +91 9990700023,"Sector 110, Noida",77.36620244,28.53778346
Chinese Cuisine,Delhi NCR,+91 9315948510,"3rd Floor, Food Court, Opulent Mall, Nehru Nagar, Ghaziabad",77.43648939,28.65412105
Cafe Istaa,Mumbai,022 61344336,"12 A/1 New Sion C.H.S. Limited, Sion, Mumbai",72.86112964,19.04177665
Pepsi Snacks Bar,Kolkata,+91 9641986844,"15/6, Bertram Street, New Market Area, Kolkata",88.3520082,22.56037573
Leafy Affaire,Kolkata,+91 6291391811 +91 9686244635,"12C, Flat 6A, Lord Sinha Road, Shyamkunj Building, Near Camac Street Area, Kolkata, Theatre Road, Kolkata",88.35256174,22.55130668
Masala Mix,Delhi NCR,+91 9711993416,"Shop 3, Basant Gaon, Vasant Vihar, New Delhi",77.15849955,28.57321812
Jugnu Chaap,Delhi NCR,Not Available,"F-24/1C, Near Sector 7, Rohini, New Delhi",77.11198702,28.7091698
Kitchens By SRR Masala,Mumbai,+91 8080343567,"Shop 9, Ground Floor, Next to Vireshwar studio,Military Road, Marol,  Mumbai",72.88012236,19.11696268
Wake Up Cafe,Delhi NCR,+91 8860473875 +91 9821202285,"JA-6, Gupta Colony, Khirki Extension, Near Tikona Park, Malviya Nagar, New Delhi",77.21680038,28.53520825
Royal Bakers,Delhi NCR,+91 9999886562,"Plot A 26, Shop 14, Ranjit Vihar, Chander Vihar, Nilothi Extension, Nangloi, New Delhi",0,0
Bro Cake,Delhi NCR,+91 9999201964,"339-P, Sector 28, Near DLF Phase 4, Gurgaon",77.08151512,28.47308215
Noida Chinese Hut,Delhi NCR,+91 9911557669,"Shop B 164, Sector 46, Near Sector 45 Noida",0,0
Royal Fast Food Hub,Kolkata,+91 9804998876,"176/A, Indira Gandhi Road, Rammohan Place, Konnagar, Kolkata",88.34374432,22.70232335
New Raj Dairy,Delhi NCR,011 22001189 +91 9891154775,"F 2/29, Krishna Nagar, New Delhi",77.284052,28.658339
Pishoriya Vegetarian Dhaba,Delhi NCR,011 25216214 +91 9250956575,"2/244, Paschim Puri, Main Chowk Red Light, Punjabi Bagh, New Delhi",77.11686529,28.66716808
Ambarsaria,Delhi NCR,+91 8826270728,"Shop 48, Devika Tower, Near Pearl Grand Banquet, Ramprastha, Ghaziabad",77.330634,28.6684351
Malvan Kinara,Mumbai,+91 7506077718,"Shop 7, Building 54/2, Shree CHS, Tilak Nagar, Chembur, Mumbai",72.89480545,19.06716303
Kerala - Kingdom of Dreams,Delhi NCR,0124 4528000,"Culture Gully, Kingdom of Dreams, Great Indian Nautanki Company Ltd, Auditorium Complex, Sector 29, Gurgaon",77.06818219,28.4685009
New Arsalan Biryani,Kolkata,+91 9304074989 +91 7003092050,"7/2 K.C. Sen Road, Near Rishra Medical Service, Rishra, Kolkata",88.34110402,22.72385108
Sana Egg Roll,Delhi NCR,+91 9958689014,"7/8, Munirka Rama Market Munirka Village, Munirka, New Delhi",77.16983791,28.56098336
Brew Sixteen,Delhi NCR,+91 9599803286 +91 9891915061,"K-3/106, Dakshin Marg, DLF Phase 2, Gurgaon",77.08602928,28.48214091
Lobby Bar - Zone By The Park,Kolkata,033 23246300,"Gate 04, DG Block, Biswa Bangla Convention Center, New Town, Kolkata",88.474664,22.582356
Ishu Paan,Delhi NCR,+91 9821225872,"Plot 11, Kiosk 2, Golf City Mart, Sector 75, Near Sector 72, Noida",77.38021798,28.57156511
Chaat Chobara,Delhi NCR,+91 9953931334,"Shop 6A, 2nd Floor, MGF Metropolis Mall, MG Road, Gurgaon",77.08207536,28.47821784
New Modern Cafe,Mumbai,0251 2443644,"1, Chirag CHS, Phadke Road, Dombivali East, Mumbai",73.09036598,19.21920957
Mishti's Kitchen,Delhi NCR,+91 8800344307 +91 8800196462,"H-38, Sector 51, Noida",77.3694886,28.5791586
Anjali Resaturant,Delhi NCR,+91 9873859865 +91 8587865264,"B-72, New Ashok Nagar, Vasundhara Enclave, New Delhi",77.30670266,28.59136359
Yummy In Tummy,Delhi NCR,+91 9711067878,"Shop G23, Ground Floor, Nipun Wonder Mall, Shakti Khand 2, Indirapuram, Ghaziabad",77.36901306,28.64737595
Rajinder Da Dhaba,Delhi NCR,011 26100355 011 41653145,"AB-14, Safdarjung Enclave Market, Safdarjung, New Delhi",77.19927415,28.56544722
Jia Mom's,Delhi NCR,+91 9811103704 +91 8700514813,"J-5/102, 1st Floor, Rajouri Garden, New Delhi",77.109966,28.668635
Om Vati Sweet,Delhi NCR,+91 7838669095,"Jhrasha, Near Medanta Hospital, Sector 39, Gurgaon",77.04614852,28.4393851
Little Loco Pops,Mumbai,+91 9769389854,"Shop 1, Blue Jewel Building, Ahimsa Marg, Near Malad Link Road, Malad West, Mumbai",72.83909403,19.17450193
Gravies,Delhi NCR,,"Adjacent Main Market, Hauz Khas, New Delhi",77.20766075,28.55788425
Asharam Foods,Delhi NCR,011 41523612 +91 9999665242,"755, First Floor, Opposite Town Hall, Chandni Chowk, New Delhi",77.22756341,28.65622967
Bell Pepper,Kolkata,+91 6291109805,"1B, Emon Kalyan, 352, Kalyannagar, Bokultala, Rahara, Khardah, Kolkata",88.389615,22.721012
Rapture,Delhi NCR,+91 9999950652,"B-11, B Block Market, Vivek Vihar, New Delhi",77.31811881,28.67120708
Kamaluddin Restaurant,Mumbai,022 23778003 +91 9619407107,"103/105, Mount Road, Sant Savta Marg, AGA Building, Mustafa Bazar, Naka Mazgaon, Byculla, Mumbai",72.84063924,18.9763383
Anju Restaurant,Delhi NCR,+91 8800779290 +91 9582785633,"285, Munirka Village Baburam Chowk, Munirka, New Delhi",77.17076529,28.55690979
Choudhary Gohana Famous Jalebi,Delhi NCR,+91 9466825157,"513/18  civil line sohna road, Gurgaon",77.03134842,28.45112813
D'Momo Factory,Delhi NCR,+91 9315470120,"Shop G-11, Aditya Complex, Plot 1, KP Block, Community Center, Maurya Enclave, Pitampura, New Delhi",77.14173889,28.70529747
New Town Bakery,Kolkata,+91 9804750827,"Rajarhat Road, Atghara Check Post, Near Indian Bank, Chinar Park, Kolkata",88.44592005,22.62782311
Bowl Baby Bowl,Delhi NCR,0124 4286537,"Unit 2A, Amenity Block 2, Candor Infospace, Sector 21, Gurgaon",0,0
Lazeez Chicken Corner,Delhi NCR,+91 9643963285,"Shop 193, 2nd, Block C, Masjid Wali Gali, New Ashok Nagar, Vasundhara Enclave, New Delhi",77.30760824,28.59187023
Fabelle Exquisite Chocolates,Kolkata,+91 7604053717,"33, Quest Mall, Syed Amir Ali Ave, Beck Bagan, Ballygunge, Kolkata",88.36567339,22.5390986
Bunooro Barbeque,Delhi NCR,+91 8882053894 +91 8285300964,"Shop 83132, Sombazar, Near Bahadurgarh Bus Stand, Najafgarh, New Delhi",76.98008403,28.61323456
Nawab Seekh Corner,Mumbai,+91 7977199258,"Plot 84, Shop 84B, Ground Floor, Patel Chawl, Chakala Market, Mohammad Ali Road, Mumbai",72.83456471,18.95017288
Vrinda's Food,Delhi NCR,011 22329106 +91 8800119964,"725, Main Babarpur, Rohtash Nagar, Shahdara, New Delhi",77.29015745,28.67649018
Don's Den,Delhi NCR,Not Available,"Unit 202, 2nd Floor, PP Tower, Netaji Subhash Place, New Delhi",0,0
Hotel Ambika Pure Veg,Mumbai,0251 2438937 0251 2434636,"Jairam Sadan, Phadke Road, Dombivali East, Mumbai Dombivali East",73.08979802,19.21868119
Chowpati,Delhi NCR,0120 4578800,"Food Court, Logix City Center Mall, Sector 32 Noida, Near Sector 34, Noida",77.3536098,28.57430166
Lust By The Pool - Radisson Blu Kaushambi Delhi NCR,Delhi NCR,+91 8744059822,"H-3, Sector 14, Kaushambi, Ghaziabad",77.32799303,28.6375113
KSC,Delhi NCR,Not Available,"Shop 17, DDA Market, AG 1, Vikaspuri, New Delhi",77.06777383,28.62807861
Bukhara - ITC Maurya,Delhi NCR,011 46215152 011 66325124,"ITC Maurya, Chanakyapuri, New Delhi",77.17324533,28.59792182
Zaiqa Mediterranean And Asian Cuisine,Kolkata,+91 7044396311,"33, Royd Street, Opposite AG School Junior Section, Park Street Area, Kolkata",88.35711714,22.55213559
Jayka The Restaurant,Delhi NCR,0120 4561347 +91 9205722978,"70, Shakti Khand 4, Indirapuram, Ghaziabad",77.36948077,28.64783113
Lorreta's Sweet Inspirations,Mumbai,+91 9867235126 +91 8097598395,"Gonsalves Villa, Karadi Wadi, Sandor, Bangli-Papdy Road, Opposite Carmelite Convent High School,  Vasai, Mumbai",72.80674107,19.3605459
Kushal Ki Rasoi,Delhi NCR,+91 9582646190,"119, Mansa Ram Chowk, Munirka Village, Munirka, New Delhi",77.16992475,28.55473468
Aashirwad,Delhi NCR,+91 9871882019,"A 1, Acharya Niketan, Mayur Vihar Phase 1, New Delhi",77.29242124,28.60899701
Jadukadai,Kolkata,+91 9432683250,"102/A/23, Lal Bahadur Sastri Road, Konnagar, Kolkata",88.34266204,22.69831105
Shri Ram Bhojnalaya,Delhi NCR,+91 9536242534,"250 B, Main Parmanand Road, Near MCD Office, Mukherjee Nagar, New Delhi",77.205126,28.710517
Royal Cafe,Delhi NCR,+91 8745080450,"Shop 01, Gardenia Glory Market, Near Sector 46, Sector 45, Noida",77.359921,28.550151
The Friendz Pizza,Delhi NCR,+91 7037426233,"Shop 4, 9A/A, Nathi Chowk, Nehru Ground, NIT, Faridabad",77.30534412,28.38617021
UG Cafe Bar - HHI,Kolkata,+91 9831252442 033 22802323,"Hotel Hindusthan International, 235/1, A.J.C. Bose Road",88.35054673,22.54162546
Mirch The Multicuisine,Delhi NCR,+91 7428812556,"G 18, TedX Tower 2, Commercial Belt, Alpha 1, Greater Noida",77.51443338,28.47306034
Asia,Delhi NCR,011 64649392 +91 9818635936,"Main Mangal Bazar Road, Opposite Dhingra Garments, Dilshad Garden, New Delhi",77.31944684,28.68030409
The Pavor's,Delhi NCR,00 1161495257,"C4F, DDA Market, Janakpuri, New Delhi",77.09029969,28.61696188
Paramjeet Machi Wala,Delhi NCR,011 25417932 +91 9810195318,"WZ-1, Opposite Metro Station, Basai Darapur Road, Moti Nagar, New Delhi",77.13952795,28.65619289
Mathur's Kitchen,Delhi NCR,+91 7065000490 +91 8510000490,"Shop 1 & 2, DDA Market, Pocket F, G.T.B. Enclave, Dilshad Garden, New Delhi",77.31423464,28.68428669
Barbeque Street,Mumbai,+91 8097732386,"Shop 11, Plot 44, Sai Aangan Society, Sector 35 D, Kharghar, Navi Mumbai",73.075553,19.071894
The Atrium - Savoy Suites,Delhi NCR,0120 3355600 +91 7290058747,"Ansal Plaza, 1-C, Institutional Area, Destination Point, Pari Chowk, Knowledge Park, Greater Noida",77.50864517,28.46518862
Pizza King,Delhi NCR,+91 9910703820,"2316/31, Chauma Road, Block A, Rajendra Park, Sector 105, Near Palam Vihar, Gurgaon",77.01050196,28.49352029
Oriental Spice,Mumbai,022 25421111 022 25394917,"Shreeji Arcade, Almeda Road, Panch Pakhadi, Thane West",72.96457339,19.19896367
Mithaas,Delhi NCR,+91 8586077986 0120 4283444,"RN-1, B Block, Sector 62, Noida",77.37065792,28.61815092
Rrice & Sspice,Kolkata,+91 9748769894,"Stall B5 & B6, Action Area 1 B, Near Unitech Gate 1, NKDA, New Town, Kolkata",88.4796666,22.57292465
Cakes & Bakes,Delhi NCR,+91 9560090579 +91 9560090575,"C-77, Shivalik Road, Malviya Nagar, New Delhi",77.21083146,28.53767948
Cream Creations,Kolkata,+91 9051167674,"11A, Shib Narayan Das Lane, Near Arya Kanya Mahavidyalaya, Maniktala, Kolkata",88.37382428,22.58830676
Sweet Treat,Delhi NCR,+91 7042070033 +91 7042080033,"Shop 8, Market 2, Chittaranjan Park, New Delhi",77.25308228,28.5367396
Indians,Delhi NCR,+91 9650727475,"Shop 106, Arcade Mahagun Puram, Shastri Nagar, Ghaziabad",77.47995626,28.66634968
Bite Me,Delhi NCR,+91 9818625445 +91 9654428289,"WEA, Karol Bagh, New Delhi",77.18982473,28.64500793
Madira Restaurant & Bar,Mumbai,022 24100030 022 24115080,"Gurukirpa Building, Dr E Borges Road, Parel, Mumbai",72.83950433,18.99897987
Biryani Batees,Delhi NCR,+91 9667289132 +91 9667288932,"Shop 5, Zamrudpur, Greater Kailash 1 (GK 1), New Delhi",77.23832946,28.55750377
Fresh Cake & Pastry Shop,Delhi NCR,+91 9958107665 +91 7042719162,"Shop 7, Singhal Residency, Arya Nagar, Near Sector 72, Sector 73, Noida",77.38032226,28.58924277
Deli - The Gateway Hotel,Kolkata,033 66660000,"The Gateway Hotel, 1930, Rajdanga Main Road, Kasba, Kolkata",88.40011094,22.51333499
Eat 'n' Treat,Delhi NCR,+91 9211921820 +91 9958001820,"Shop 3, Ground Floor, Ajnara Orchid, Raj Nagar Extension, Raj Nagar, Ghaziabad",77.42034886,28.70135868
Barbeque Destination,Delhi NCR,+91 8860601717 +91 8860604141,"128, Part 2, Sector 15, Gurgaon",77.04331476,28.45863214
Park Street Bites,Delhi NCR,+91 9910195575,"Plot 8, Kiosk 3, Golf City Mart, Sector 75, Near Sector 72, Noida",77.38595255,28.57201414
Kuch Toh Mangalo,Delhi NCR,011 41610012 +91 9599494004,"D7/7460, Ground Floor, Vasant Kunj, New Delhi",77.15079892,28.52842401
Takkar Dhaba,Delhi NCR,011 26444823 011 26478180,"258, Gali 3, Govindpuri, Kalkaji, New Delhi",77.26175688,28.53795665
Food Farm,Delhi NCR,+91 7303211392 +91 7303211395,"Opposite Aggarpur, Sector 41, Noida",77.35818699,28.56657943
South Indian Kitchen,Kolkata,+91 8017875746,"1/88/1, Azad Garh, Tollygunge, Kolkata",88.35647341,22.48938591
Fittoo,Mumbai,+91 8169501231,"D3, 734, Siddhivinayak CHS, Sector 7, Charkop, Kandivali West, Mumbai",72.83146944,19.22327517
Le Cafe Foodies Adda,Delhi NCR,+91 8700949280,"Lodhi Road, Meharchand Market, Opposite Footpath, Lodhi Colony, New Delhi",77.22632591,28.58481201
Hot Box,Mumbai,+91 8788524848 +91 8698524848,"Shop 7, Peer Saya Apartment, Vartak Road, Dongar Pada, Virar West, Near Virar, Mumbai",72.80823044,19.46202817
Punjabi Rasoi,Delhi NCR,+91 9910340680 +91 9871282999,"R-16, Nehru Enclave, Near Paras Ground, Main Kalkaji Road, Kalkaji, New Delhi",77.25092411,28.54492907
Ginger Garlic,Delhi NCR,+91 7838393111 0124 4001522,"G 7, Bestech Mall, Sector 57, Gurgaon",77.09049381,28.42167611
Ud's Rasoi,Delhi NCR,+91 9990222874 +91 9625279925,"Shop 17, AG-1, DDA Market, Vikaspuri, New Delhi",77.06766419,28.62825813
Mirch Masala,Kolkata,+91 9163018393,"DC Block, Outside City Center, Sector 1, Salt Lake, Kolkata",88.409074,22.588733
The Grilled Station,Delhi NCR,+91 9717020780 +91 9717250780,"Shop 1, 41A, Main Market, Mayur Vihar Phase 3, New Delhi",77.33634476,28.61227592
Flavours Food Hub,Delhi NCR,+91 7834921993 +91 9873043472,"Pocket B-6/72, Shop 5, Sector-3, Rohini, New Delhi",77.10910298,28.70123517
Nice Kream,Mumbai,+91 8850059301 022 23612220,"Shop 5, Nasrullah Terrace, Junction of Warden & Nepeansea Road, Opposite St. Stephen's Church, Kemps Corner, Mumbai",72.80444082,18.96478981
Bread & Pasta,Delhi NCR,Not Available,"Shop 15, Near HDFC Bank, Tulip Mall, Sector 48, Noida",77.3673027,28.5579292
Desi'52,Delhi NCR,+91 9625285558,"1325, Saraswati Kunj, Sector 53, Gurgaon",77.09169745,28.44720479
A-1 Kolkata Kathi Roll,Delhi NCR,+91 9958219316,"Shop -1, Kala Pathar Road, Nyay Khand 2, Indirapuram, Ghaziabad",77.36015741,28.63423229
The Anchorage Bar - The Floatel Hotel,Kolkata,033 22137777 033 22137778,"Floatel, 9/10, Kolkata Jetty, Strand Road, Dalhousie BBD Bagh, Kolkata",88.34323972,22.57024233
Dosa 'n' Chinese,Delhi NCR,Not Available,"Food Court, 2nd Floor, Pacific Mall, Sahibabad, Ghaziabad",77.3202686,28.64627316
The All American Diner,Delhi NCR,011 43663162 011 43663333,"India Habitat Centre, Lodhi Road, New Delhi",77.22566105,28.58921274
Punjabi Dhaba,Delhi NCR,+91 9540489482 +91 9211215998,"Plot 1, Badkhal Enclave, Faridabad Gurgaon Road, Sainik Colony, Faridabad",77.27271639,28.40309358
Fusion Kitchen,Delhi NCR,+91 9899820546,"Shop 18, DDA Market, AG1, Vikaspuri, New Delhi",77.06780668,28.62821781
Bikaner Kitchen,Delhi NCR,+91 7011017481,"A-1, Jhilmil Colony, Vivek Vihar, New Delhi",77.30678983,28.67141093
Bangoli Dhaba,Kolkata,+91 9875507232,"Jaffarpure Schoolpara, Barrackpore, Kolkata",88.38334646,22.77641737
House of Biryanis,Mumbai,022 61739648,"Dr. E Moses Road, Worli, Mumbai",72.82066751,18.99226035
Tandoori Nature,Delhi NCR,+91 9910525509,"22, Samman Bazar, Bhogal, Jangpura, New Delhi",77.2480927,28.58330786
Nourishef - The Taste of Health,Kolkata,+91 9836466874,"A/133, Ground Floor, Baghajatin Colony, Southern Portion, Ward 99, Borough-X, Baghajatin, Kolkata",88.349913,22.501548
Shri Sai Restaurant,Delhi NCR,+91 9891511043,"38/39, Near Lodhi Chowk, Near Sector 51, Noida",0,0
Spicy Chicken,Delhi NCR,+91 9891454513,"V 19, Block V, Sector D, Bhagwati Vihar, Uttam Nagar, New Delhi",0,0
Noodlez Express,Delhi NCR,+91 9654938002,"B 10, Radhey Puri, Krishna Nagar, New Delhi",77.28862064,28.65764801
Panda Town,Delhi NCR,00 1149095713,"Shop 2, B 32, Community Centre, Janakpuri, New Delhi",77.09106781,28.62868955
Dwarkadhish Bhojnalya,Delhi NCR,+91 7248785531,"58, GT Road, Nehru Nagar, Ghaziabad",77.42879882,28.6593956
Red Carpet,Kolkata,033 25126969 +91 9874874119,"6, Near Airpot Gate 2, Dum Dum, Kolkata",88.43362346,22.64572187
Pa Pa Ya,Delhi NCR,011 66103779,"Dome, Level 4, Select Citywalk, A-3, District Centre, Saket, New Delhi",77.21861087,28.52839131
Baza Restaurant,Delhi NCR,+91 9650002052 +91 9717771289,"Delhi-Jaipur Expressway, Sector 77, Near, Sector 83, Gurgaon",76.97394814,28.38684302
Dilli Chaat Bhandar,Delhi NCR,+91 9818574807 +91 9899007575,"Shiv Murti Chowk, Opposite Kabir Bhawan Mandir, Near DSD College, Old Railway Road, Gurgaon",77.02343524,28.46224852
The Bombay Cafe,Mumbai,022 68493545,"Shop 5, Ground Floor, Building 3, Gate 2, Navjivan Society, Grant Road, Mumbai",72.81936228,18.96573692
Rajinder Ka Dhaba,Delhi NCR,+91 8130472222 +91 8130482222,"Vardhman Star Citi Mall, Sector 7, Dwarka, New Delhi",77.07171969,28.58297959
The King Of Pizza,Delhi NCR,+91 9315779954,"Jhariya Complex, Sector 49, Noida",77.37715892,28.56547402
The Chinese Kitchen,Delhi NCR,+91 8384014768 +91 9319560850,"Sector 16-B, Opposite Ganga Shopping Complex, Vasundhara, Ghaziabad",77.35325877,28.65337845
Amber Family Restaurant,Mumbai,+91 7700946041 +91 7700946042,"Shop 254, Last Bus Stop, Veera Desai Area, Mumbai",72.8375309,19.13510911
Amul Ice-Cream Parlour,Delhi NCR,+91 9560956374 +91 9213578185,"H/13, Main Road, Near Reliance Fresh, Chander Nagar, New Delhi",0,0
Asmars,Kolkata,+91 8420740164,"BA 57, Prafulla Kanan, West Kestopur, Opposite Sbi Bank, Kestopur, Kolkata",88.422891,22.60552
Dal Cheeni,Delhi NCR,+91 9999640244,"SCO-40, 2nd Floor, Huda Complex, Sector 56, Gurgaon",77.09993821,28.42810397
Italiano,Mumbai,+91 8767875045 +91 8767875043,"Room 1, Mohan Chawl, Jakeria Road, Near Lokmanya Tilak Library, Behind Vasant View, Malad West, Mumbai",72.843976,19.185155
Shyam's,Kolkata,Not Available,"306/1, G.T. Road, Salkia, Howrah",88.34278811,22.60399451
AWM All Wings Meal,Delhi NCR,+91 9897375182 +91 8882103329,"K 92, Bank Street, Munirka, New Delhi",77.17417873,28.55599629
Al-Zaika,Delhi NCR,+91 9518837792,"134-A, Shop 1, Near Begam Pur Park, Begam Pur, Malviya Nagar, New Delhi",77.20902532,28.53818815
U Me & Momos,Delhi NCR,+91 8810690566,"Shop 3 Plot 166, Near Sai Baba Mandir Khirki Village, Malviya Nagar, New Delhi",77.21880231,28.53081027
Hot Plate,Delhi NCR,+91 8219703314 0120 4182689,"Shop 44, Paras Tierra Commercial 2, Sector 137, Near Felix Hospital, Near Sector 132, Noida",77.40941148,28.50434423
Punjabi Tadka,Delhi NCR,+91 9213935524 +91 7838313271,"Shop 25, DDA Market, Chowkhandi, Tilak Nagar, New Delhi",77.09593434,28.64688605
Chick N Cheese,Delhi NCR,+91 9650130004 0120 6720520,"Shop 2, Galleria Market 1, Crossing Republik, Ghaziabad",77.43500344,28.62611187
Kulcha Singh Amritsari,Delhi NCR,+91 9873559559 +91 9873429429,"Apex Acacia, Block C, Sector 3, Vaishali, Ghaziabad",77.342601,28.640854
The Food Storey,Kolkata,+91 9830425816 +91 9830640404,"P-241, Lake Road, Lake Road, Ward 90, Southern Avenue, Kolkata",88.35379288,22.51528717
Yellow Makai Restaurant,Delhi NCR,+91 9016473145,"Shop 7, Plot 275, Sector 4, Near Ramprastha Green, Vaishali, Ghaziabad",77.347492,28.649579
Dream Food Bank,Delhi NCR,+91 8802904169,"Shop 1, Shriram Market, Shiv Mandir Chowk, Mata Road, Sector 12, Gurgaon",77.03496773,28.4760476
Udupi Veg Restaurant,Mumbai,022 25462942,"Shop 9, Sahyog Shopping Centre, TMC Building, Old Bombay Pune Road, Mumbra, Thane",73.02171886,19.18813651
Tandoor Tadka,Mumbai,+91 7506953163 022 28990071,"Shop 1, LT Road, Vazira Naka, Borivali West, Mumbai",72.84421999,19.229091
Pappu Indian & Chinese Restaurant,Delhi NCR,+91 8747506060 +91 8130310559,"Mansa Ram Chowk, Munirka Village, Munirka, New Delhi",77.16987513,28.55454385
Vicky Marinated Momos,Delhi NCR,+91 9667675439,"7/11, Nirmal Puri, Nirmal Colony, Block 7, Lajpat Nagar 4, New Delhi",77.24054966,28.56330675
Glass N Grill,Kolkata,+91 6291840057,"T.N. Mukherjee Road, Kusaigachi, Raghunathpur, Bonderbill, Dankuni, Uttarpara, Kolkata",88.306223,22.675974
Saravana Bhavan,Delhi NCR,011 28844305 011 23345577,"P-13, Connaught Circus, Connaught Place, New Delhi",77.21646477,28.6321403
Moolchand's,Delhi NCR,011 41546143 011 41546144,"2695, Desh Bandhu Gupta Road, Karol Bagh, New Delhi",77.19403647,28.65205505
Lick Me Ice Cream & Coffee Shop,Mumbai,+91 8652393939,"Shop 7, Harmony Apartment, Near Dmart, Nalasopara East, Mumbai",72.82332558,19.40501963
ZopMeals,Delhi NCR,+91 8920833356,"Delhi University-GTB Nagar, New Delhi",77.1856083,28.69347904
The Momo Hut,Delhi NCR,+91 9718645549,"80/3, Near Power House, Basant Gaon, Vasant Vihar, New Delhi",77.15881605,28.57326346
Royal Fast Food,Delhi NCR,,"Shop 77, Guruduwara Bala Sahib, Bhagwan Nagar, Maharani Bagh, Near New Friends Colony, New Delhi",77.26814557,28.56174958
Tutur Kitchen,Kolkata,+91 9007402205 +91 9830564741,"1/7, Teghoria, V.I.P. Road, Baguihati, Kolkata",88.43296465,22.62325591
VP ki Kitchen,Delhi NCR,+91 9899809438 +91 9716747756,"MS Complex, Shop 1, Chauhan Market, Gijhor, Sector 53, Noida",77.3622763,28.5872241
Startup Cafe,Delhi NCR,011 41354561 +91 9205547153,"DLF Tower A, Jasola, New Delhi",77.28938162,28.53829154
Chaska,Delhi NCR,0120 4269990 +91 9211121110,"3, Sector-23, Sanjay Nagar, Near Raj Nagar, Ghaziabad",77.44690273,28.68579821
Shake And Juice.com,Delhi NCR,+91 9811824747,"F 20, Single Story, Vijay Nagar, New Delhi",77.2029021,28.6932864
Empire Bar,Kolkata,+91 9830378854,"60 C, Chowringhee, Kolkata",88.34717318,22.54046794
KFFCorner,Delhi NCR,00 99104422190,"WZ-11, Dayalsar Road, Near Happy Child Model School, Uttam Nagar, New Delhi",77.05521237,28.61961425
Pa Bakers,Mumbai,022 25771230 +91 9619414243,"24, Vijaya House, Station Road, Vikhroli West, Vikhroli, Mumbai",72.92641226,19.11102442
Sardar Ji Pakode Wale,Delhi NCR,00 09212993885,"2633/1A, Shadipur, Near Metro Pillar 210, Main Market, West Patel Nagar, New Delhi",77.16373924,28.64789057
Super Cake Point,Delhi NCR,+91 9125578927 +91 9910577749,"Shop 9, Chawla Complex, Gali 14, Main Road Wazirabad, Ghaziabad",77.223308,28.729095
Sahi Muradabadi Chicken Biryani Corner,Delhi NCR,+91 9870490986 +91 9810321320,"Shop 119, Gyan Khand 4, Indirapuram, Ghaziabad",77.35956095,28.64672157
Haji Affan Biriyani,Kolkata,+91 8340307558,"30C/1, Bus Stand Hatiara, Rajarhat, New Town, Kolkata",88.447445,22.610034
Asli Muradabadi Chicken Biryani,Delhi NCR,+91 8512030660,"Shop 50, Gali 1, Saidulajab, Saket, New Delhi",77.20203046,28.51905135
Gaon,Delhi NCR,011 40114597 +91 8700272059,"K-4, Ground Floor, Lajpat Nagar 2, New Delhi",77.24582255,28.56675964
Tamak,Mumbai,+91 9029995555,"6, Ahiya Apartments, Corner Of 16th Road, Main Avenue, Behind Rajesh Khanna Garden, Santacruz West, Mumbai",72.83118848,19.07733652
Brownie Bakers,Mumbai,+91 7021790071 +91 9819494200,"Shop 3, Bella Vista, Sector 23, Ulwe, Navi Mumbai",73.034284,18.979668
Jeeta Kulfi Walle,Delhi NCR,+91 9999114180,"D 3/1, Lal Quarter, Krishna Nagar, New Delhi",77.27948964,28.65962949
Olive Bar & Kitchen,Delhi NCR,+91 9810235472 011 29574444,"6-8 kalka das marg, mehrauli, new delhi",77.18399629,28.52610102
Premium Royal Biryani,Delhi NCR,+91 9643323323,"8, 2nd Floor Opposite Remal Public School, DDA Market, Sector 3, Rohini, New Delhi",77.10565869,28.69972651
Nasta Junction,Delhi NCR,,"1, Tilak Nagar, New Delhi",77.08672229,28.63901761
Chicken Point,Delhi NCR,+91 8447689999,"2/96, Near 2 Block Government School, Geeta Colony, New Delhi",77.2725122,28.65415047
Vayanjan,Delhi NCR,+91 7836910102 +91 9312369163,"999/38, DDA Flats, Kalkaji, New Delhi",77.25527935,28.52851974
Pizza Hub,Delhi NCR,+91 8527719931 +91 9582926432,"Shop 847, Janta Flates, Near GTB Enclave, Dilshad Garden, New Delhi",77.31075414,28.6880959
Kathleen,Kolkata,+91 9434019466 +91 8240377236,"Shop 14, Housing Complex, Block-III, Sulanguri, Hatiara, Baguihati, Kolkata",88.43184114,22.61618416
Shakespier,Delhi NCR,011 40517365 +91 9911976667,"Shop G3, Ground Floor, Ashirwad Complex, Green Park, New Delhi",77.2031631,28.557034
Cafe Kolkata,Kolkata,+91 9038285404,"69A, Vivekananda Road, Ward 26, Bara Bazar, Kolkata",88.3638458,22.58613397
Standard Fast Food & Restaurant,Delhi NCR,+91 9718552970,"Shop 16, Near Mother Dairy, Alaknanda Market, Alaknanda, New Delhi",77.25405391,28.52574253
Souffle,Mumbai,+91 7410759555,"Shop 28, Kanakia Levels, Kathiyawadi Chowk, Malad East, Mumbai",72.85417434,19.18327998
Cascades - The Grand New Delhi,Delhi NCR,+91 9873737047 +91 8588932124,"The Grand New Delhi, Nelson Mandela Road, Phase 2, Vasant Kunj, New Delhi",77.15307578,28.53911212
My Mother's Kitchen,Delhi NCR,+91 8700006329 +91 9654962844,"UG-110, Suncity Arcade, Metro Pillar 174, Opposite HDFC Bank, Beside Ocus Technopolis Building Sector 54, Gurgaon",77.11162526,28.43587113
Kings Food Corner,Delhi NCR,+91 7290901212 +91 7290906565,"Opposite JMD Garden, Islamapur, Sohna Road, Gurgaon",77.03662332,28.43096041
Maati,Delhi NCR,+91 9667757979 +91 7303457979,"Shop 5, Bisrakh Gol Chakkar, Near Supertech ECO Village 1, Amrapali Leisure Valley, Greater Noida",77.44476937,28.5755751
Bholu Da Dhaba,Delhi NCR,+91 9818310716 +91 9811310716,"Badam Singh Market, Mahipalpur, New Delhi",77.12233566,28.54510961
Sugandh,Delhi NCR,0120 2824687,"C-81/7, RDC, Raj Nagar, Ghaziabad",77.44248915,28.67709819
Angel Snacks,Delhi NCR,+91 8800573737 +91 7011481314,"383, 1st Floor, Street 16, East Azad Nagar, Krishna Nagar, New Delhi",77.285049,28.663534
Cake,Delhi NCR,+91 8860838157,"Plot 76, 2nd Floor, Near Vinayak Properties, Gurgaon",77.10070733,28.46226001
Amrit Bhog,Kolkata,+91 9830240232,"233, Belilious Road, Opposite N.D. College, Howrah Station Area, Howrah",88.32821298,22.59225386
Brain Freeze Icecream & Desserts,Mumbai,+91 8291174953 +91 8291174954,"Shop 10, Victory Park, Roshan Nagar, Borivali West, Mumbai",72.8524822,19.23112369
Noon To Moon,Delhi NCR,+91 9711865755,"Amritnagar, South Extension 1, New Delhi",77.21990604,28.56970861
Keshar Restaurant,Mumbai,+91 8007051122 +91 8007831122,"Shop 16, B 16, Aster Co-Operative HSC Society Limited, Nilemore Station Road, Nalasopara, Mumbai",72.81113897,19.41976004
Lazzat E Kolkata,Kolkata,+91 9903521347,"Biman Nagar, Kolsi Bari, Dum Dum Kaikhali, Kolkata",88.439252,22.628681
CFD - Crazzy For Dimsums,Delhi NCR,+91 8287190600,"Shop 144, Ground Floor, Plot 168 A, Jaipuria Plaza, Gautam Budh Nagar, Sector 26, Noida",77.3348957,28.5766241
Suziewong,Delhi NCR,0124 4301285 +91 9818498881,"Unit 302, Sapphire Mall, Sector 49, Gurgaon",77.04871606,28.41178441
Punjabi Zaika,Delhi NCR,+91 8527859768,"Food Court, 2nd Floor, Pacific Mall, Sahibabad, Ghaziabad",77.32013617,28.64628905
Kaligodam,Kolkata,033 22707723,"16, Mallick Street, Jorasanko, Bara Bazar, Kolkata",88.35456602,22.58084191
R9 Roadiz,Delhi NCR,+91 7737788703,"76-77, 1st Floor, Janakpuri Airport Road, Janakpuri, New Delhi",77.13550966,28.57156482
Kafila Lounge & Bar,Delhi NCR,+91 8527876616 +91 9971418604,"F 122, First Floor, Vikas Cinemall, Opposite Shahdra Metro Station, Shahdara, New Delhi",77.28787389,28.67544299
Gokul9,Mumbai,+91 7045370003,"Ground Floor, 21 Ram Mansion, Near Gokul Hotel, Nowroji Ferdonji Street, Regal Cinema, Colaba, Mumbai",72.83199415,18.92278358
Shobhit Yadav Bhoj,Delhi NCR,+91 9818579484,"R-10/E-30, Sector 10, Raj Nagar, Ghaziabad",77.44589422,28.68154889
Sky Wok - Park Inn by Radisson,Delhi NCR,011 66336062,"Park Inn By Radisson, Plot 6A, Patparganj, New Delhi",77.314608,28.631438
Mehfil,Delhi NCR,011 24640200 011 24652385,"A-188, Main Road, Timber Market, Sukhdev Market, Defence Colony, New Delhi",77.22848777,28.57381878
Cafe Plus,Delhi NCR,+91 7291090958,"Lower Ground Floor, Centre Stage Mall, Sector 18, Noida",77.32300177,28.56803817
The Bombay Natural Kulfi,Delhi NCR,011 40367003 +91 9811997003,14A/25 W.E.A Channa Market Karol Bagh New Delhi 110005,77.18611188,28.64570116
Delhi Delight Food,Delhi NCR,+91 9899719275,"J 3/42, DDA Flats, Behind Alaknanda Market, Alaknanda, New Delhi",77.25520626,28.52570306
Shree Nandi Dosa,Mumbai,+91 8097042420 +91 8879473752,"Shop 22, Plot 8 Sector - 18, Vashi, Navi Mumbai",73.00474,19.070258
Uncle Taste-Only Chinese,Delhi NCR,+91 7428429393 +91 7428429494,"Grand Villas Party Hall, Sector 116, Near Sector 110, Noida",77.400186,28.569483
Cafeteria & Co.,Delhi NCR,011 33105032,"G 14, Hudson Lane, Vijay Nagar, New Delhi",77.20416248,28.69442428
Bikaner's Sweets,Delhi NCR,+91 9729443824,"Shop L 97, Old Rangpuri Road, Mahipalpur Extension, Mahipalpur, New Delhi",77.12380383,28.54336015
Satya Narayan Fast Food,Kolkata,+91 8777439389,"N.S Avenue, Opposite City Choice, Serampore, Kolkata",88.34042005,22.75425544
Loaf Espresso,Kolkata,+91 9831223244,"Premises 12, Jessore Road, Barasat Champadali More, District 24 North Parganas Ward 24, Barasat, Kolkata",88.48552689,22.71928553
Garden Restaurant,Mumbai,+91 9892917389,"151, Mehru Manzil Church Road, Marol Village, Andheri East, Mumbai",72.884,19.1173
Choicest Cakes,Delhi NCR,+91 9971908068,"E-307, Vivek Vihar, Sector 82, Sector 93, Noida",77.3855183,28.5141364
TNG Food - Tandoor & Grill,Delhi NCR,+91 8744869922 0120 4272453,"B 16, GSR Tower, RDC, Raj Nagar, Ghaziabad",77.44397686,28.67403974
Emblem’s Kitchen,Delhi NCR,+91 9810444545 00 1244211900,"Old Delhi Road, Opposite Officer's Enclave & Airforce School, Sector 14, Gurgaon",77.04290539,28.47463621
World Of Pizzeria Bistro,Delhi NCR,+91 7433054109,"H-35, Prem Enclave, Near Kailash Medicare, Opposite DPSG Meerut Road, Raj Nagar, Ghaziabad",0,0
Soul Cafe 24*7,Kolkata,+91 9073682975,"78, Canal Circular Road, EM Bypass, Near Apollo Hospital, Kankurgachi, Kolkata",88.400639,22.57778267
Hyderabad Spl. Chicken Biryani Point,Delhi NCR,+91 9312800032,"Batra Cinema Complex, Mukherjee Nagar, New Delhi",77.21508108,28.71055159
37 Food Hub,Delhi NCR,+91 9818552749,"Near ILD Towers, Rama Garden, Block C, Sector 37, Gurgaon",76.98051788,28.45297139
Shahi Roll Center,Delhi NCR,+91 9818662526,"Near Flyover, Rohtak Road, Nangloi, New Delhi",77.06780501,28.68191744
Suruchi Zeal,Mumbai,+91 7719007711 +91 9890633590,"Suruchi Homes, Near Suruchi Baug, MG Parulekar Road, Vasai, Mumbai",72.80050535,19.34211434
Paratha Plaza,Delhi NCR,+91 8595431156 +91 9811122023,"I-88, Near Track On Courier Service, Katwaria Sarai, Qutab Institutional Area, New Delhi",77.18552884,28.54230073
Shikhara,Delhi NCR,011 26224636 011 26416514,"4, Guru Nanak Market, R Block, Greater Kailash (GK) 1, New Delhi",77.24396244,28.54700719
Vishu's Cakery,Delhi NCR,+91 7007955875,"House 1045, 2nd Floor, Sector 51, South City 2, Gurgaon",77.0631564,28.42675032
Anytime Kitchen,Delhi NCR,+91 9540839090,"Shop no.1 DDA Market , A-2 block Janakpuri , New Delhi",77.07444984,28.62198373
Foodicious,Delhi NCR,+91 9821333816 +91 9821333819,"B 33/ K 1C, Sector 1, Noida",77.31292102,28.58719817
Annapurna Hotel,Kolkata,+91 8335909594,"A-12, Unitech Gate 1, New Town, Kolkata",88.480412,22.573237
Hungry Minister,Delhi NCR,+91 8287511318,"Shop 6, Gautam Budh Nagar, Sector 41, Noida",77.35990226,28.56105226
Maakhan Kulfi,Delhi NCR,+91 9818416869 +91 9910809040,"F2/9, Vijay Chowk Mandir Marg, Near Happy English School, Krishna Nagar, New Delhi",77.28318673,28.65994428
Beeji Ki Rasoi,Mumbai,+91 7506670666,"D'souza House 9, 1st Floor, Gaothan Lane 2, Santacruz West, Mumbai",72.83909053,19.08103758
Trendy Foods,Kolkata,+91 6289944114 +91 9748193439,"BG 30, Hanapara, Kestopur, Kolkata",88.431889,22.600971
Urban Pasta King,Delhi NCR,+91 9625654288,"G-9/197, Sector 16, Rohini, New Delhi",77.11882263,28.73741284
The Bawarchi Restaurant,Mumbai,+91 9067676908 +91 7499490393,"7, Icchaputri Sai Prestige Chs, Taki Virar Road, Palghar, Nalasopara, Mumbai",72.8205863,19.4243293
Tamasha,Delhi NCR,011 66103822,"28, Block A, Kasturba Gandhi Marg, Connaught Place, New Delhi",77.22186003,28.62966246
Mad Drop,Delhi NCR,+91 9319067894,"Shop 158, Sector 21C, Sector 21, Faridabad",77.29691897,28.43153063
Pandit Ji Tikki Wale,Delhi NCR,+91 9718582429,"Plot 8, Sector 72, Noida",77.38632672,28.57190726
Crossroad Udipi,Kolkata,+91 8001243257,"106, Near Jodhpur Park, Kolkata",88.36093057,22.50270048
SDB Smoking Pizza & Bakers,Delhi NCR,+91 9811015711 +91 9953588428,"1505, Gurudwara Road, Jawahar Colony, Faridabad",77.2828605,28.37656428
Royal Challenge,Mumbai,022 28401982 022 28400208,"Film City Road, Goregaon East, Mumbai",72.86332704,19.1742388
Balaji Fast Food,Delhi NCR,+91 8700603359,"Shop 58, Near Aggersen Chowk, Opposite Haryana Paneer Bhandar, Ballabhgarh, Faridabad",0,0
Bilal Restaurant,Delhi NCR,+91 9891665190,"F 278, Jamia Nagar, Okhla Village, Jasola, New Delhi",77.28964716,28.56243511
Glaz'd Patisserie,Delhi NCR,0124 4690788,"24, LG Floor, Garden Estate Club, Near Guru Dronacharya Metro Station, DLF Phase 3, Gurgaon",77.101662,28.483046
Madras Coffee House,Delhi NCR,Not Available,"Ground Floor, Amenity Block, Unitech Infospace, Sector 135, Noida",77.40263756,28.49980824
Capital Curry,Delhi NCR,011 40554620 +91 9873752171,"3rd Floor, Living Style Mall, Main Kalindi Kunj Road, Jasola, New Delhi",77.29679625,28.54112585
The Baker's Street,Kolkata,+91 7278770833,"75, Surath Chandra Ghosh Street, Ichapur, Howrah",88.33018575,22.58053729
Chik Plaza,Delhi NCR,+91 7303511818 +91 7303611818,"Shop 2, Gardenia Gateway, Sector 72, Noida",77.38224976,28.57171763
Balaji Parantha Corner,Delhi NCR,+91 9811470836,"FF-40B, Mangal Bazar Road, Near Dena Bank, Laxmi Nagar, New Delhi",77.28370104,28.63656671
Vasant Fresh Juice & Snacks Centre,Mumbai,+91 9324279565,"Shop 22, Vasant Utsav CHS Ltd, Thakur Village, Near D'Mart, Kandivali East, Mumbai",72.874507,19.206982
Breads Alone,Delhi NCR,+91 8588930705,"DG-59, Rodeodrive, Sector 50, Gurgaon",77.05173556,28.42009651
A-One Hazi Biryani,Kolkata,+91 6289252475,"120, B L Saha Road, Tollygunge, Kolkata",88.33985645,22.4978169
Rapido 18 Fast Food,Delhi NCR,+91 9990600303,"G 28, Opposite GIP Mall, Sector 18, Noida",77.32656207,28.56988263
Shudh Vaishno Rasoi,Delhi NCR,+91 9136134520,"80/25, Shakti Nagar, Near Tikona Park, Sector 37, Gurgaon",77.01691512,28.45343802
Prema Vilas,Kolkata,033 24631961,"63/1, Lake Market Area, Kolkata",88.34898904,22.51714858
Grill N Veg,Delhi NCR,+91 9818882514,"Patparganj Village, Near Primary School, Mayur Vihar Phase 1, New Delhi",0,0
Woody's Grill,Delhi NCR,+91 9818577977,,77.11998749,28.64767647
La Pino'z Pizza,Delhi NCR,00 1244074040 +91 9205135950,"Shop 19, 1st Floor, Sector 31, Gurgaon",77.05057114,28.45322401
Chinese Hub,Delhi NCR,+91 7065216366,"25 Futa Road, Near Bharat Nursery, Loni, Ghaziabad",77.30517112,28.73871311
Coastal,Mumbai,022 28810997 022 28440255,"Kaustubh Usha Colony, Evershine Nagar, Link Road, Malad West, Mumbai",72.83270024,19.19079571
Raj's Delight,Mumbai,+91 9867497086,"Shop 17/18, Mermaid-1, Sector 11, CBD-Belapur, Navi Mumbai",73.04325887,19.01600273
Bangla Food Point,Delhi NCR,+91 9999372889,"Vill Gizhore, Main Road, Sector 53, Noida",77.362234,28.587169
Lajawab Restaurant,Delhi NCR,+91 8448610150 +91 8448610151,"Street 3, Near ICICI ATM, Chhallera Village, Sector 44, Noida",77.33872321,28.55461218
Dev Kathi Rolls & Momos,Delhi NCR,+91 9891942875,"Gardenia Gateway, Sector 75, Near Sector 72, Noida",77.38059048,28.57164579
Malabar Foods,Delhi NCR,011 22772277 +91 9810034082,"G-9, Krishna Plaza Complex, Pocket A Bus Stand, Mayur Vihar Phase 2, New Delhi",77.30077632,28.61972403
ZASTY,Delhi NCR,+91 9386668666,,77.04793051,28.46259249
Adros Kitchen,Kolkata,+91 9903436780,"2062, Block EG 41, Rajdanga Main Road, Kasba, Kolkata",88.3935355,22.51134778
Brothers Bakery,Delhi NCR,+91 7042144019 +91 8800563254,"Ground Floor, Bharat Complex, Main Pataudi Road, Kadipur Village, Sector 10, Near Sector 37, Gurgaon",77.00206507,28.45037554
Manish Fast Food Corner,Delhi NCR,+91 9771931359 +91 9871931359,"Near Noida One Building, Sector 62, Noida",77.36565292,28.6238861
Tikka Express meets Chennai Express,Delhi NCR,+91 8368769676 +91 8800265253,"Shop 16, Amrapali Crystal Homes, Sector 76, Near Sector 72, Noida",77.38378163,28.57173059
FoodPost,Mumbai,+91 7738533331,"Phulora CHS, Opposite XL Plaza, IIT Powai, Mumbai",72.91849996,19.12540714
Momo Mania,Kolkata,+91 9136764567,"88/5/34, P.O & P.S., Madhyamgram, Barasat, Kolkata",88.45998153,22.69518452
The Panda Factory,Delhi NCR,+91 9675700007 +91 8800579129,,77.09076371,28.63726382
Meenu Di Kitchen,Delhi NCR,,"13 A/4, Ward 1, Opposite Bhool Bhuliyan, Mehrauli, New Delhi",77.18188774,28.52268716
Deol Da Dhaba,Delhi NCR,+91 9212858086 +91 7500490004,"1749/127, Shanti Nagar, Tri Nagar, Near Bank of Baroda, New Delhi, Lawrence Road, New Delhi",77.16630846,28.67641782
Billu's Hut,Delhi NCR,+91 7982505854,"G-28, Aggarwal Millenium Tower, Netaji Subhash Place, New Delhi",77.1488788,28.69369226
Tittli Cafe,Delhi NCR,+91 9811192843,"Thousand Shades Butterfly Park, Sector 52A, Near Sector 53, Gurgaon",77.089955,28.438198
Rolls Hut,Delhi NCR,+91 9891315555,"J 65, Near Mother Dairy, West Patel Nagar, New Delhi",77.1606423,28.65143924
Limelight Restaurant & Bar,Kolkata,033 22483334 033 22483353,"32/1, Dalhousie BBD Bagh, Kolkata",88.34840063,22.57108815
Anmol Bakery,Delhi NCR,+91 9711230043 +91 9999856459,"Near ESI Hospital, Sharma Market, Village Chaura, Sector 22, Noida",77.346209,28.592398
Cafe MMJ - Mumbai Meri Jaan,Mumbai,+91 9920195563,"Shop 17, National Palace, Takka Panvel, Old Panvel, Navi Mumbai",73.11672807,18.9795586
Trendz - The Lalit Mumbai,Mumbai,022 68493309,"The Lalit Mumbai, Sahar Airport Road, Andheri East, Chakala, Mumbai",72.87380911,19.10992734
Uncle Sams Chick-Inn,Delhi NCR,011 45629899 +91 9810468955,"G-120, Manish Global Mall, Sector 22, Dwarka",77.06014965,28.56035818
Wrappy Potter and The Prisoner Of Taste.,Delhi NCR,011 66103706,"WZ- 1778, Shop 3, Rani Bagh, Pitampura, New Delhi",77.1322025,28.68632705
The Yummy Taste,Delhi NCR,+91 9773643669,"62, Sector 62, Noida",77.37288717,28.62635554
Lokenath Hotel,Kolkata,+91 9903898093,"5F/1, Bankim Mukherjee Sarani, Durgapur Colony, New Alipore, Kolkata",88.33251994,22.51107738
Star Kitchen Restaurants & Tiffin Service,Delhi NCR,+91 9205133122,"B-178, Palam Extension, Sector 7, Dwarka, Delhi",77.07089894,28.58706363
Shireen Restaurant,Delhi NCR,+91 9205954913,"L-92/226, Gali 7, Near Labour Chowk, Mahipalpur, New Delhi",0,0
Grub Station,Delhi NCR,0124 2581396,"1396, Sector 46, Near Sector 45, Gurgaon",77.05646463,28.42986862
Jumpin Beans,Mumbai,+91 7304147819,"Shop 7, Maruti Tower, GK Marg, Next To Metropolis Lab, Lower Parel West, Lower Parel, Mumbai",72.82366499,18.99822512
Food Any Time,Delhi NCR,+91 9911280107 +91 7011090186,"D 1, Second Floor, Phase 2, Vijay Vihar, Sector 4, Rohini, New Delhi",77.09503043,28.70780977
Dipu's Fast Food,Kolkata,+91 9330070050,"17, B.R.S-10, Bagmari Lane, Behind Manicktala Fire Brigade Station, Kankurgachi, Kolkata",88.392305,22.583053
Delhi Food Junction,Delhi NCR,+91 8750686509,"A1, Lado Sarai, New Delhi",77.19160002,28.52701685
UP Wala Tadka,Delhi NCR,+91 7298989854,"Shop 15, Ground Floor, Galleria Market 1, Crossing Republik, Ghaziabad",77.435083,28.625813
Singh Chicken Corner,Delhi NCR,+91 9999938225 +91 7838787174,"2151/17-A, Shadipur Depot, West Patel Nagar, New Delhi",77.15513472,28.65332225
Tandoori Town,Delhi NCR,+91 8860012570,"G181, Sanjay Nagar, Sector 23, Raj Nagar, Ghaziabad",0,0
Coffee & Bites,Delhi NCR,+91 7838984822,"2/45, Double Storey, Near Dog Clinic, Vijay Nagar, New Delhi",77.20074099,28.69059824
Madras Coffee House,Delhi NCR,011 23363074,"P-5/90, Outer Circle, Connaught Place, New Delhi",77.21652243,28.63180188
Interval Chinese & Fastfood,Kolkata,+91 8240757091,"49, Lenin Sarani, Kanchrapara Workshop Road, Kanchrapara Loco, Kalyani, Kolkata",88.447384,22.944689
Mughal Flavour's,Mumbai,022 65207771 022 65207776,"B/13, Aero View Housing Society, Near Fauziya Hospital, LBS Marg, Kurla West, Kurla, Mumbai",72.88042679,19.07977951
Sita Ram Diwan Chand,Delhi NCR,011 23587380 011 23586128,"2246, Near Imperial Cinema, Paharganj, New Delhi",77.21047942,28.6424077
Shere Punjab,Delhi NCR,+91 8510000155 0124 2364212,"Near Sahara Mall, Metro Pilar 81, MG Road, Gurgaon",77.08772376,28.48035445
Maa Ki Rasoi,Delhi NCR,+91 9958602100,"27/57, Old Rajendra Nagar, Rajinder Nagar, New Delhi",77.1859,28.640427
New Embassy,Kolkata,033 22827490,"53A, Chowringhee Lane, Chowringhee, Kolkata",88.34769756,22.54393644
Harish Pastry Shop,Delhi NCR,+91 9811873073,"70C, Bihari Colony, Behind Parsvnath Mall, Shahdara, New Delhi",77.28808746,28.6715436
Prerna Family Restaurant,Delhi NCR,+91 9910625241 +91 8527617032,"Main Road, I Block Market, Near Bank of India, Sector 22, Noida",77.3449071,28.5990864
Chhotu Kolkata Kathi Roll,Delhi NCR,+91 9958321285 +91 9711961310,"Main Alaknanda Market, Alaknanda, New Delhi",77.25426782,28.52561233
Zaika Hub,Mumbai,022 49744786 022 49744222,"37, Kasturi C.H.S, Moraj Residency, Plot 1, Sector 16, Sanpada, Navi Mumbai",73.00336752,19.05885292
South Indian Point,Delhi NCR,+91 9899805497,"1767, Main Road, Tri Nagar, Near Axis Bank, Shanti Nagar, New Delhi",77.1639032,28.6766376
Ekto9 - True Oriental Flavours,Delhi NCR,+91 6232051000 +91 6232052000,,77.0832314,28.4687199
F5 Corner,Mumbai,+91 9769624783,"Shop 5, Kashinath Patil Chawl, S V Road, Opposite Jayesh Art Jwellers, Malad West, Mumbai",72.847004,19.192103
D-Den,Kolkata,+91 9836054636 +91 7872662678,"Shop 46, Moti Sil Street, Near Regal Cinema, New Market Area, Kolkata",88.35277531,22.56330439
Spesh Food,Delhi NCR,+91 9654767767 011 25190074,"G-1, Food Court, Kirti Nagar Metro Station, Kirti Nagar, New Delhi",77.1481868,28.656307
Tanishka Chicken Corner,Delhi NCR,+91 8447810404,"G-34, Vardhman Central Mall, Nehru Vihar, New Delhi",77.21879292,28.70932566
Philco Bakery,Delhi NCR,0129 4036291 +91 9899169995,"5K 42, NIT, Faridabad",77.30055168,28.40240082
Kafe Mitro,Delhi NCR,+91 9871000177 +91 9811461861,"F 601, Ramphal Chowk, Sector 7, Dwarka, New Delhi",77.07159698,28.58574911
Bhagat Ji Sweets,Delhi NCR,+91 9958600158 0120 3748924,"SF-196, Shastri Nagar, Ghaziabad",77.47488622,28.67383219
Pampa Fast Food centre,Kolkata,+91 8910258130,"A-11, Near Vidyasagar Udyan, Kalyani Nadia, Kolkata",88.459083,22.966621
Bhuri Bhoj Restaurant,Kolkata,Not Available,15/1 Tarapada Chatterjee Lane,88.31474595,22.56717388
Gupta's Rasoi,Delhi NCR,0124 4008787 +91 9540558855,"SCO 2, Near Sector 37, Sector 10 A, Gurgaon",77.00587917,28.43904223
PePizza,Delhi NCR,+91 9711176666,,77.08569366,28.46998871
Balsai Hospitalities,Delhi NCR,+91 9971022776,"F 398, Near Marurti Service Showroom, Sector 63, Noida",0,0
Real Food of Delhi,Delhi NCR,+91 9990264999 +91 9667722205,"H 15, Rise Tower, Sector 63, Noida",77.37673279,28.62831434
Southern Spice Rootz,Delhi NCR,011 66104006,"A-109, Ganesh Nagar, Tilak Nagar, New Delhi",77.09087502,28.63628157
Cafe Limelight,Delhi NCR,+91 9971569988,"Sector 41, Noida",77.35982,28.561418
Sam Ventures,Delhi NCR,+91 8750719803,"S 521/ 522, Moon House, Shakarpur, New Delhi",0,0
